[
  {
    "name": "Karlsplatz (Stachus)",
    "place": "München",
    "id": "de:09162:1",
    "divaId": 1,
    "abbreviation": "KA",
    "tariffZones": "m",
    "products": [
      "UBAHN",
      "BUS",
      "TRAM",
      "SBAHN"
    ],
    "latitude": 48.13951,
    "longitude": 11.56613
  },
  {
    "name": "Marienplatz",
    "place": "München",
    "id": "de:09162:2",
    "divaId": 2,
    "abbreviation": "MP",
    "tariffZones": "m",
    "products": [
      "UBAHN",
      "BUS",
      "SBAHN"
    ],
    "latitude": 48.13725,
    "longitude": 11.57542
  },
  {
    "name": "Isartor",
    "place": "München",
    "id": "de:09162:3",
    "divaId": 3,
    "abbreviation": "ITO",
    "tariffZones": "m",
    "products": [
      "BUS",
      "TRAM",
      "SBAHN"
    ],
    "latitude": 48.13364,
    "longitude": 11.58303
  },
  {
    "name": "Rosenheimer Platz",
    "place": "München",
    "id": "de:09162:4",
    "divaId": 4,
    "abbreviation": "RPL",
    "tariffZones": "m",
    "products": [
      "TRAM",
      "SBAHN"
    ],
    "latitude": 48.12884,
    "longitude": 11.59406
  },
  {
    "name": "Ostbahnhof München",
    "place": "München",
    "id": "de:09162:5",
    "divaId": 5,
    "abbreviation": "OB",
    "tariffZones": "m",
    "products": [
      "UBAHN",
      "BUS",
      "TRAM",
      "SBAHN",
      "BAHN"
    ],
    "latitude": 48.12805,
    "longitude": 11.60365
  },
  {
    "name": "Hauptbahnhof",
    "place": "München",
    "id": "de:09162:6",
    "divaId": 6,
    "abbreviation": "HU",
    "tariffZones": "m",
    "products": [
      "UBAHN",
      "TRAM",
      "SBAHN"
    ],
    "latitude": 48.14003,
    "longitude": 11.56107
  },
  {
    "name": "Hackerbrücke",
    "place": "München",
    "id": "de:09162:7",
    "divaId": 7,
    "abbreviation": "HAC",
    "tariffZones": "m",
    "products": [
      "TRAM",
      "SBAHN"
    ],
    "latitude": 48.14239,
    "longitude": 11.54859
  },
  {
    "name": "Donnersbergerbrücke",
    "place": "München",
    "id": "de:09162:8",
    "divaId": 8,
    "abbreviation": "DBR",
    "tariffZones": "m",
    "products": [
      "BUS",
      "SBAHN",
      "BAHN"
    ],
    "latitude": 48.14266,
    "longitude": 11.53515
  },
  {
    "name": "Laim",
    "place": "München",
    "id": "de:09162:9",
    "divaId": 9,
    "abbreviation": "LAI",
    "tariffZones": "m",
    "products": [
      "BUS",
      "SBAHN"
    ],
    "latitude": 48.14391,
    "longitude": 11.50326
  },
  {
    "name": "Pasing",
    "place": "München",
    "id": "de:09162:10",
    "divaId": 10,
    "abbreviation": "PBF",
    "tariffZones": "m|1",
    "products": [
      "BUS",
      "TRAM",
      "SBAHN",
      "BAHN"
    ],
    "latitude": 48.1489,
    "longitude": 11.46043
  },
  {
    "name": "Leonrodplatz",
    "place": "München",
    "id": "de:09162:11",
    "divaId": 11,
    "abbreviation": "LEO",
    "tariffZones": "m",
    "products": [
      "BUS",
      "TRAM"
    ],
    "latitude": 48.15947,
    "longitude": 11.54739
  },
  {
    "name": "Hochschule München (Lothstr.)",
    "place": "München",
    "id": "de:09162:12",
    "divaId": 12,
    "abbreviation": "LOT",
    "tariffZones": "m",
    "products": [
      "BUS",
      "TRAM"
    ],
    "latitude": 48.15427,
    "longitude": 11.55383
  },
  {
    "name": "Sandstraße",
    "place": "München",
    "id": "de:09162:13",
    "divaId": 13,
    "abbreviation": "SAN",
    "tariffZones": "m",
    "products": [
      "TRAM"
    ],
    "latitude": 48.15058,
    "longitude": 11.55813
  },
  {
    "name": "Karlstraße",
    "place": "München",
    "id": "de:09162:15",
    "divaId": 15,
    "abbreviation": "KAL",
    "tariffZones": "m",
    "products": [
      "BUS",
      "TRAM"
    ],
    "latitude": 48.14477,
    "longitude": 11.55966
  },
  {
    "name": "Lenbachplatz",
    "place": "München",
    "id": "de:09162:16",
    "divaId": 16,
    "abbreviation": "LEN",
    "tariffZones": "m",
    "products": [
      "BUS",
      "TRAM"
    ],
    "latitude": 48.14087,
    "longitude": 11.56851
  },
  {
    "name": "Nationaltheater",
    "place": "München",
    "id": "de:09162:17",
    "divaId": 17,
    "abbreviation": "NAT",
    "tariffZones": "m",
    "products": [
      "TRAM"
    ],
    "latitude": 48.13936,
    "longitude": 11.5787
  },
  {
    "name": "Kammerspiele",
    "place": "München",
    "id": "de:09162:18",
    "divaId": 18,
    "abbreviation": "KAM",
    "tariffZones": "m",
    "products": [
      "TRAM"
    ],
    "latitude": 48.13852,
    "longitude": 11.58307
  },
  {
    "name": "Maxmonument",
    "place": "München",
    "id": "de:09162:19",
    "divaId": 19,
    "abbreviation": "MXM",
    "tariffZones": "m",
    "products": [
      "TRAM"
    ],
    "latitude": 48.13757,
    "longitude": 11.58808
  },
  {
    "name": "Marienplatz (Theatinerstraße)",
    "place": "München",
    "id": "de:09162:20",
    "divaId": 20,
    "abbreviation": "THE",
    "tariffZones": "m",
    "products": [
      "TRAM"
    ],
    "latitude": 48.13947,
    "longitude": 11.57532
  },
  {
    "name": "Maximilianeum",
    "place": "München",
    "id": "de:09162:21",
    "divaId": 21,
    "abbreviation": "MXI",
    "tariffZones": "m",
    "products": [
      "TRAM"
    ],
    "latitude": 48.13606,
    "longitude": 11.59597
  },
  {
    "name": "Flurstraße",
    "place": "München",
    "id": "de:09162:22",
    "divaId": 22,
    "abbreviation": "FLU",
    "tariffZones": "m",
    "products": [
      "BUS",
      "TRAM"
    ],
    "latitude": 48.13563,
    "longitude": 11.6048
  },
  {
    "name": "Grillparzerstraße",
    "place": "München",
    "id": "de:09162:23",
    "divaId": 23,
    "abbreviation": "GRI",
    "tariffZones": "m",
    "products": [
      "BUS",
      "TRAM"
    ],
    "latitude": 48.13633,
    "longitude": 11.60913
  },
  {
    "name": "Alter Messeplatz",
    "place": "München",
    "id": "de:09162:25",
    "divaId": 25,
    "abbreviation": "AME",
    "tariffZones": "m",
    "products": [
      "BUS"
    ],
    "latitude": 48.13455,
    "longitude": 11.54631
  },
  {
    "name": "Isartor/Zweibrückenstraße",
    "place": "München",
    "id": "de:09162:26",
    "divaId": 26,
    "abbreviation": "ITZ",
    "tariffZones": "m",
    "products": [
      "BUS"
    ],
    "latitude": 48.13274,
    "longitude": 11.58377
  },
  {
    "name": "Ridlerstraße",
    "place": "München",
    "id": "de:09162:27",
    "divaId": 27,
    "abbreviation": "RID",
    "tariffZones": "m",
    "products": [
      "BUS"
    ],
    "latitude": 48.13078,
    "longitude": 11.53925
  },
  {
    "name": "Landshuter Allee",
    "place": "München",
    "id": "de:09162:29",
    "divaId": 29,
    "abbreviation": "LAN",
    "tariffZones": "m",
    "products": [
      "BUS"
    ],
    "latitude": 48.15186,
    "longitude": 11.53697
  },
  {
    "name": "Poccistraße",
    "place": "München",
    "id": "de:09162:30",
    "divaId": 30,
    "abbreviation": "PC",
    "tariffZones": "m",
    "products": [
      "UBAHN",
      "BUS"
    ],
    "latitude": 48.12551,
    "longitude": 11.55036
  },
  {
    "name": "Hirschgarten",
    "place": "München",
    "id": "de:09162:31",
    "divaId": 31,
    "abbreviation": "HIG",
    "tariffZones": "m",
    "products": [
      "BUS",
      "SBAHN"
    ],
    "latitude": 48.14347,
    "longitude": 11.51946
  },
  {
    "name": "Hochschule München",
    "place": "München",
    "id": "de:09162:32",
    "divaId": 32,
    "abbreviation": "HSM",
    "tariffZones": "m",
    "products": [
      "TRAM"
    ],
    "latitude": 48.15545,
    "longitude": 11.55329
  },
  {
    "name": "Nordbad",
    "place": "München",
    "id": "de:09162:34",
    "divaId": 34,
    "abbreviation": "NOB",
    "tariffZones": "m",
    "products": [
      "BUS",
      "TRAM"
    ],
    "latitude": 48.16093,
    "longitude": 11.56341
  },
  {
    "name": "Görresstraße",
    "place": "München",
    "id": "de:09162:35",
    "divaId": 35,
    "abbreviation": "GOR",
    "tariffZones": "m",
    "products": [
      "BUS"
    ],
    "latitude": 48.15599,
    "longitude": 11.56218
  },
  {
    "name": "Georgenstraße",
    "place": "München",
    "id": "de:09162:36",
    "divaId": 36,
    "abbreviation": "GEO",
    "tariffZones": "m",
    "products": [
      "BUS"
    ],
    "latitude": 48.15517,
    "longitude": 11.58346
  },
  {
    "name": "Müllerstraße",
    "place": "München",
    "id": "de:09162:38",
    "divaId": 38,
    "abbreviation": "MUL",
    "tariffZones": "m",
    "products": [
      "TRAM"
    ],
    "latitude": 48.13162,
    "longitude": 11.57207
  },
  {
    "name": "Goetheplatz",
    "place": "München",
    "id": "de:09162:40",
    "divaId": 40,
    "abbreviation": "GO",
    "tariffZones": "m",
    "products": [
      "UBAHN",
      "BUS"
    ],
    "latitude": 48.12923,
    "longitude": 11.55775
  },
  {
    "name": "Eduard-Schmid-Straße",
    "place": "München",
    "id": "de:09162:41",
    "divaId": 41,
    "abbreviation": "EDS",
    "tariffZones": "m",
    "products": [
      "TRAM"
    ],
    "latitude": 48.12625,
    "longitude": 11.57844
  },
  {
    "name": "Mariahilfplatz",
    "place": "München",
    "id": "de:09162:42",
    "divaId": 42,
    "abbreviation": "MHP",
    "tariffZones": "m",
    "products": [
      "BUS",
      "TRAM"
    ],
    "latitude": 48.12407,
    "longitude": 11.5813
  },
  {
    "name": "Kurfürstenplatz",
    "place": "München",
    "id": "de:09162:43",
    "divaId": 43,
    "abbreviation": "KUR",
    "tariffZones": "m",
    "products": [
      "BUS",
      "TRAM"
    ],
    "latitude": 48.16025,
    "longitude": 11.57501
  },
  {
    "name": "Winzererstraße",
    "place": "München",
    "id": "de:09162:44",
    "divaId": 44,
    "abbreviation": "WIZ",
    "tariffZones": "m",
    "products": [
      "BUS"
    ],
    "latitude": 48.15773,
    "longitude": 11.5602
  },
  {
    "name": "Infanteriestraße Süd",
    "place": "München",
    "id": "de:09162:45",
    "divaId": 45,
    "abbreviation": "INS",
    "tariffZones": "m",
    "products": [
      "BUS"
    ],
    "latitude": 48.15677,
    "longitude": 11.5586
  },
  {
    "name": "Haidenauplatz",
    "place": "München",
    "id": "de:09162:46",
    "divaId": 46,
    "abbreviation": "HAI",
    "tariffZones": "m",
    "products": [
      "BUS",
      "TRAM"
    ],
    "latitude": 48.13209,
    "longitude": 11.60963
  },
  {
    "name": "Elisabethplatz",
    "place": "München",
    "id": "de:09162:47",
    "divaId": 47,
    "abbreviation": "ELP",
    "tariffZones": "m",
    "products": [
      "TRAM"
    ],
    "latitude": 48.15766,
    "longitude": 11.57502
  },
  {
    "name": "Nordendstraße",
    "place": "München",
    "id": "de:09162:48",
    "divaId": 48,
    "abbreviation": "NOE",
    "tariffZones": "m",
    "products": [
      "TRAM"
    ],
    "latitude": 48.15487,
    "longitude": 11.57541
  },
  {
    "name": "Schellingstraße",
    "place": "München",
    "id": "de:09162:49",
    "divaId": 49,
    "abbreviation": "SHE",
    "tariffZones": "m",
    "products": [
      "BUS",
      "TRAM"
    ],
    "latitude": 48.15105,
    "longitude": 11.57331
  },
  {
    "name": "Sendlinger Tor",
    "place": "München",
    "id": "de:09162:50",
    "divaId": 50,
    "abbreviation": "SE",
    "tariffZones": "m",
    "products": [
      "UBAHN",
      "BUS",
      "TRAM"
    ],
    "latitude": 48.13344,
    "longitude": 11.56668
  },
  {
    "name": "Pinakotheken",
    "place": "München",
    "id": "de:09162:51",
    "divaId": 51,
    "abbreviation": "PIN",
    "tariffZones": "m",
    "products": [
      "BUS",
      "TRAM"
    ],
    "latitude": 48.14897,
    "longitude": 11.5719
  },
  {
    "name": "Karolinenplatz",
    "place": "München",
    "id": "de:09162:52",
    "divaId": 52,
    "abbreviation": "KRO",
    "tariffZones": "m",
    "products": [
      "TRAM"
    ],
    "latitude": 48.14555,
    "longitude": 11.5697
  },
  {
    "name": "Ottostraße",
    "place": "München",
    "id": "de:09162:53",
    "divaId": 53,
    "abbreviation": "OTO",
    "tariffZones": "m",
    "products": [
      "TRAM"
    ],
    "latitude": 48.14235,
    "longitude": 11.56778
  },
  {
    "name": "Donnersbergerstraße",
    "place": "München",
    "id": "de:09162:54",
    "divaId": 54,
    "abbreviation": "DON",
    "tariffZones": "m",
    "products": [
      "BUS",
      "TRAM"
    ],
    "latitude": 48.14627,
    "longitude": 11.53595
  },
  {
    "name": "Hermann-Lingg-Straße",
    "place": "München",
    "id": "de:09162:55",
    "divaId": 55,
    "abbreviation": "HML",
    "tariffZones": "m",
    "products": [
      "TRAM"
    ],
    "latitude": 48.13904,
    "longitude": 11.55171
  },
  {
    "name": "Georg-Hirth-Platz",
    "place": "München",
    "id": "de:09162:56",
    "divaId": 56,
    "abbreviation": "GHP",
    "tariffZones": "m",
    "products": [
      "BUS"
    ],
    "latitude": 48.1346,
    "longitude": 11.55606
  },
  {
    "name": "Beethovenplatz",
    "place": "München",
    "id": "de:09162:57",
    "divaId": 57,
    "abbreviation": "BEE",
    "tariffZones": "m",
    "products": [
      "BUS"
    ],
    "latitude": 48.13317,
    "longitude": 11.55803
  },
  {
    "name": "Kapuzinerplatz/Arbeitsagentur",
    "place": "München",
    "id": "de:09162:58",
    "divaId": 58,
    "abbreviation": "KZP",
    "tariffZones": "m",
    "products": [
      "BUS"
    ],
    "latitude": 48.12675,
    "longitude": 11.55843
  },
  {
    "name": "Kapuzinerstraße",
    "place": "München",
    "id": "de:09162:59",
    "divaId": 59,
    "abbreviation": "KZS",
    "tariffZones": "m",
    "products": [
      "BUS"
    ],
    "latitude": 48.12509,
    "longitude": 11.56195
  },
  {
    "name": "Odeonsplatz",
    "place": "München",
    "id": "de:09162:60",
    "divaId": 60,
    "abbreviation": "OD",
    "tariffZones": "m",
    "products": [
      "UBAHN",
      "BUS"
    ],
    "latitude": 48.14251,
    "longitude": 11.57762
  },
  {
    "name": "Baldeplatz",
    "place": "München",
    "id": "de:09162:61",
    "divaId": 61,
    "abbreviation": "BLD",
    "tariffZones": "m",
    "products": [
      "BUS"
    ],
    "latitude": 48.12335,
    "longitude": 11.56713
  },
  {
    "name": "Claude-Lorrain-Straße",
    "place": "München",
    "id": "de:09162:62",
    "divaId": 62,
    "abbreviation": "CLS",
    "tariffZones": "m",
    "products": [
      "BUS"
    ],
    "latitude": 48.12107,
    "longitude": 11.57146
  },
  {
    "name": "Humboldtstraße",
    "place": "München",
    "id": "de:09162:63",
    "divaId": 63,
    "abbreviation": "HUM",
    "tariffZones": "m",
    "products": [
      "BUS"
    ],
    "latitude": 48.11949,
    "longitude": 11.57534
  },
  {
    "name": "Barthstraße",
    "place": "München",
    "id": "de:09162:64",
    "divaId": 64,
    "abbreviation": "BTH",
    "tariffZones": "m",
    "products": [
      "TRAM"
    ],
    "latitude": 48.14029,
    "longitude": 11.53023
  },
  {
    "name": "Trappentreustraße",
    "place": "München",
    "id": "de:09162:65",
    "divaId": 65,
    "abbreviation": "TRA",
    "tariffZones": "m",
    "products": [
      "BUS",
      "TRAM"
    ],
    "latitude": 48.1401,
    "longitude": 11.53438
  },
  {
    "name": "Schrenkstraße",
    "place": "München",
    "id": "de:09162:66",
    "divaId": 66,
    "abbreviation": "SHR",
    "tariffZones": "m",
    "products": [
      "TRAM"
    ],
    "latitude": 48.13961,
    "longitude": 11.54129
  },
  {
    "name": "Holzapfelstraße",
    "place": "München",
    "id": "de:09162:67",
    "divaId": 67,
    "abbreviation": "HLZ",
    "tariffZones": "m",
    "products": [
      "TRAM"
    ],
    "latitude": 48.13924,
    "longitude": 11.54713
  },
  {
    "name": "Reichenbachplatz",
    "place": "München",
    "id": "de:09162:68",
    "divaId": 68,
    "abbreviation": "REP",
    "tariffZones": "m",
    "products": [
      "TRAM"
    ],
    "latitude": 48.13328,
    "longitude": 11.57662
  },
  {
    "name": "Deutsches Museum",
    "place": "München",
    "id": "de:09162:69",
    "divaId": 69,
    "abbreviation": null,
    "tariffZones": "m",
    "products": [
      "TRAM"
    ],
    "latitude": 48.13186,
    "longitude": 11.58612
  },
  {
    "name": "Universität",
    "place": "München",
    "id": "de:09162:70",
    "divaId": 70,
    "abbreviation": "UN",
    "tariffZones": "m",
    "products": [
      "UBAHN",
      "BUS"
    ],
    "latitude": 48.15007,
    "longitude": 11.581
  },
  {
    "name": "Am Gasteig",
    "place": "München",
    "id": "de:09162:71",
    "divaId": 71,
    "abbreviation": "GAS",
    "tariffZones": "m",
    "products": [
      "TRAM"
    ],
    "latitude": 48.13281,
    "longitude": 11.5915
  },
  {
    "name": "Wiener Platz",
    "place": "München",
    "id": "de:09162:72",
    "divaId": 72,
    "abbreviation": null,
    "tariffZones": "m",
    "products": [
      "TRAM"
    ],
    "latitude": 48.13408,
    "longitude": 11.59575
  },
  {
    "name": "Friedensengel/Villa Stuck",
    "place": "München",
    "id": "de:09162:73",
    "divaId": 73,
    "abbreviation": "FEN",
    "tariffZones": "m",
    "products": [
      "BUS",
      "TRAM"
    ],
    "latitude": 48.14072,
    "longitude": 11.60009
  },
  {
    "name": "Holbeinstraße",
    "place": "München",
    "id": "de:09162:74",
    "divaId": 74,
    "abbreviation": "HOL",
    "tariffZones": "m",
    "products": [
      "TRAM"
    ],
    "latitude": 48.14317,
    "longitude": 11.60132
  },
  {
    "name": "Sternwartstraße",
    "place": "München",
    "id": "de:09162:75",
    "divaId": 75,
    "abbreviation": "STW",
    "tariffZones": "m",
    "products": [
      "TRAM"
    ],
    "latitude": 48.14619,
    "longitude": 11.60336
  },
  {
    "name": "Herkomerplatz",
    "place": "München",
    "id": "de:09162:76",
    "divaId": 76,
    "abbreviation": "HER",
    "tariffZones": "m",
    "products": [
      "BUS",
      "TRAM"
    ],
    "latitude": 48.15086,
    "longitude": 11.60879
  },
  {
    "name": "Mauerkircherstraße",
    "place": "München",
    "id": "de:09162:77",
    "divaId": 77,
    "abbreviation": "MAU",
    "tariffZones": "m",
    "products": [
      "BUS",
      "TRAM"
    ],
    "latitude": 48.14884,
    "longitude": 11.60062
  },
  {
    "name": "Tivolistraße",
    "place": "München",
    "id": "de:09162:78",
    "divaId": 78,
    "abbreviation": "TIV",
    "tariffZones": "m",
    "products": [
      "BUS",
      "TRAM"
    ],
    "latitude": 48.14994,
    "longitude": 11.59635
  },
  {
    "name": "Paradiesstraße",
    "place": "München",
    "id": "de:09162:79",
    "divaId": 79,
    "abbreviation": "PDI",
    "tariffZones": "m",
    "products": [
      "TRAM"
    ],
    "latitude": 48.14645,
    "longitude": 11.59301
  },
  {
    "name": "Giselastraße",
    "place": "München",
    "id": "de:09162:80",
    "divaId": 80,
    "abbreviation": "GI",
    "tariffZones": "m",
    "products": [
      "UBAHN",
      "BUS"
    ],
    "latitude": 48.15652,
    "longitude": 11.584
  },
  {
    "name": "Nationalmuseum/Haus der Kunst",
    "place": "München",
    "id": "de:09162:81",
    "divaId": 81,
    "abbreviation": "NAM",
    "tariffZones": "m",
    "products": [
      "BUS",
      "TRAM"
    ],
    "latitude": 48.14308,
    "longitude": 11.58852
  },
  {
    "name": "Astallerstraße",
    "place": "München",
    "id": "de:09162:82",
    "divaId": 82,
    "abbreviation": "AST",
    "tariffZones": "m",
    "products": [
      "BUS"
    ],
    "latitude": 48.13553,
    "longitude": 11.5305
  },
  {
    "name": "Tumblingerstraße",
    "place": "München",
    "id": "de:09162:83",
    "divaId": 83,
    "abbreviation": "TUM",
    "tariffZones": "m",
    "products": [
      "BUS"
    ],
    "latitude": 48.12309,
    "longitude": 11.5543
  },
  {
    "name": "Mariannenplatz",
    "place": "München",
    "id": "de:09162:84",
    "divaId": 84,
    "abbreviation": "MRN",
    "tariffZones": "m",
    "products": [
      "TRAM"
    ],
    "latitude": 48.13521,
    "longitude": 11.58679
  },
  {
    "name": "Kazmairstraße",
    "place": "München",
    "id": "de:09162:85",
    "divaId": 85,
    "abbreviation": "KAZ",
    "tariffZones": "m",
    "products": [
      "BUS"
    ],
    "latitude": 48.13501,
    "longitude": 11.53406
  },
  {
    "name": "Maxvorstadt/Sammlung Brandhorst",
    "place": "München",
    "id": "de:09162:86",
    "divaId": 86,
    "abbreviation": "MAV",
    "tariffZones": "m",
    "products": [
      "BUS"
    ],
    "latitude": 48.14835,
    "longitude": 11.57428
  },
  {
    "name": "Bergmannstraße",
    "place": "München",
    "id": "de:09162:87",
    "divaId": 87,
    "abbreviation": "BMS",
    "tariffZones": "m",
    "products": [
      "BUS"
    ],
    "latitude": 48.13493,
    "longitude": 11.5374
  },
  {
    "name": "Wörthstraße",
    "place": "München",
    "id": "de:09162:88",
    "divaId": 88,
    "abbreviation": "WOE",
    "tariffZones": "m",
    "products": [
      "TRAM"
    ],
    "latitude": 48.13196,
    "longitude": 11.59783
  },
  {
    "name": "Orleansstraße",
    "place": "München",
    "id": "de:09162:89",
    "divaId": 89,
    "abbreviation": "ORL",
    "tariffZones": "m",
    "products": [
      "BUS"
    ],
    "latitude": 48.12532,
    "longitude": 11.59949
  },
  {
    "name": "Holzkirchner Bahnhof",
    "place": "München",
    "id": "de:09162:90",
    "divaId": 90,
    "abbreviation": "HOB",
    "tariffZones": "m",
    "products": [
      "BUS",
      "TRAM"
    ],
    "latitude": 48.13908,
    "longitude": 11.55582
  },
  {
    "name": "Bundesfinanzhof",
    "place": "München",
    "id": "de:09162:91",
    "divaId": 91,
    "abbreviation": "BFH",
    "tariffZones": "m",
    "products": [
      "TRAM"
    ],
    "latitude": 48.14827,
    "longitude": 11.60553
  },
  {
    "name": "Kustermannpark",
    "place": "München",
    "id": "de:09162:92",
    "divaId": 92,
    "abbreviation": "KUP",
    "tariffZones": "m",
    "products": [
      "BUS"
    ],
    "latitude": 48.12418,
    "longitude": 11.60129
  },
  {
    "name": "Tal",
    "place": "München",
    "id": "de:09162:93",
    "divaId": 93,
    "abbreviation": "TAL",
    "tariffZones": "m",
    "products": [
      "BUS"
    ],
    "latitude": 48.13597,
    "longitude": 11.57952
  },
  {
    "name": "Technische Universität",
    "place": "München",
    "id": "de:09162:95",
    "divaId": 95,
    "abbreviation": "TUV",
    "tariffZones": "m",
    "products": [
      "BUS"
    ],
    "latitude": 48.14844,
    "longitude": 11.56553
  },
  {
    "name": "Klenzestraße",
    "place": "München",
    "id": "de:09162:96",
    "divaId": 96,
    "abbreviation": "KNS",
    "tariffZones": "m",
    "products": [
      "BUS"
    ],
    "latitude": 48.12539,
    "longitude": 11.5708
  },
  {
    "name": "Amalienstraße",
    "place": "München",
    "id": "de:09162:97",
    "divaId": 97,
    "abbreviation": "AMI",
    "tariffZones": "m",
    "products": [
      "BUS"
    ],
    "latitude": 48.14775,
    "longitude": 11.57645
  },
  {
    "name": "Seidlstraße",
    "place": "München",
    "id": "de:09162:99",
    "divaId": 99,
    "abbreviation": null,
    "tariffZones": "",
    "products": [
      "BUS"
    ],
    "latitude": 48.14261,
    "longitude": 11.55624
  },
  {
    "name": "München Hbf.",
    "place": "München",
    "id": "de:09162:100",
    "divaId": 100,
    "abbreviation": null,
    "tariffZones": "m",
    "products": [
      "BUS",
      "BAHN"
    ],
    "latitude": 48.14029,
    "longitude": 11.5596
  },
  {
    "name": "Hans-Fischer-Straße",
    "place": "München",
    "id": "de:09162:101",
    "divaId": 101,
    "abbreviation": "HFS",
    "tariffZones": "m",
    "products": [
      "BUS"
    ],
    "latitude": 48.12762,
    "longitude": 11.54507
  },
  {
    "name": "Gollierplatz",
    "place": "München",
    "id": "de:09162:102",
    "divaId": 102,
    "abbreviation": "GOL",
    "tariffZones": "m",
    "products": [
      "BUS"
    ],
    "latitude": 48.1363,
    "longitude": 11.53431
  },
  {
    "name": "Schlörstraße",
    "place": "München",
    "id": "de:09162:103",
    "divaId": 103,
    "abbreviation": "SHO",
    "tariffZones": "m",
    "products": [
      "BUS"
    ],
    "latitude": 48.15001,
    "longitude": 11.53683
  },
  {
    "name": "Albrechtstraße",
    "place": "München",
    "id": "de:09162:104",
    "divaId": 104,
    "abbreviation": "ALB",
    "tariffZones": "m",
    "products": [
      "BUS",
      "TRAM"
    ],
    "latitude": 48.15554,
    "longitude": 11.54022
  },
  {
    "name": "Fasaneriestraße",
    "place": "München",
    "id": "de:09162:105",
    "divaId": 105,
    "abbreviation": "FAS",
    "tariffZones": "m",
    "products": [
      "BUS",
      "TRAM"
    ],
    "latitude": 48.15731,
    "longitude": 11.54346
  },
  {
    "name": "Infanteriestraße",
    "place": "München",
    "id": "de:09162:106",
    "divaId": 106,
    "abbreviation": "INF",
    "tariffZones": "m",
    "products": [
      "BUS",
      "TRAM"
    ],
    "latitude": 48.16145,
    "longitude": 11.55361
  },
  {
    "name": "Barbarastraße",
    "place": "München",
    "id": "de:09162:107",
    "divaId": 107,
    "abbreviation": "BRB",
    "tariffZones": "m",
    "products": [
      "BUS",
      "TRAM"
    ],
    "latitude": 48.16136,
    "longitude": 11.55897
  },
  {
    "name": "Hohenzollernstraße",
    "place": "München",
    "id": "de:09162:108",
    "divaId": 108,
    "abbreviation": "HOZ",
    "tariffZones": "m",
    "products": [
      "BUS"
    ],
    "latitude": 48.15924,
    "longitude": 11.5854
  },
  {
    "name": "Friedrichstraße",
    "place": "München",
    "id": "de:09162:109",
    "divaId": 109,
    "abbreviation": "FRD",
    "tariffZones": "m",
    "products": [
      "BUS"
    ],
    "latitude": 48.15997,
    "longitude": 11.58055
  },
  {
    "name": "Königsplatz",
    "place": "München",
    "id": "de:09162:110",
    "divaId": 110,
    "abbreviation": "KN",
    "tariffZones": "m",
    "products": [
      "UBAHN",
      "BUS"
    ],
    "latitude": 48.14498,
    "longitude": 11.56324
  },
  {
    "name": "Regerplatz",
    "place": "München",
    "id": "de:09162:111",
    "divaId": 111,
    "abbreviation": "REG",
    "tariffZones": "m",
    "products": [
      "BUS",
      "TRAM"
    ],
    "latitude": 48.12437,
    "longitude": 11.58813
  },
  {
    "name": "Viktualienmarkt",
    "place": "München",
    "id": "de:09162:112",
    "divaId": 112,
    "abbreviation": "VIK",
    "tariffZones": "m",
    "products": [
      "BUS"
    ],
    "latitude": 48.13525,
    "longitude": 11.57493
  },
  {
    "name": "Blumenstraße",
    "place": "München",
    "id": "de:09162:113",
    "divaId": 113,
    "abbreviation": "BMN",
    "tariffZones": "m",
    "products": [
      "BUS"
    ],
    "latitude": 48.13319,
    "longitude": 11.57396
  },
  {
    "name": "Gärtnerplatztheater",
    "place": "München",
    "id": "de:09162:114",
    "divaId": 114,
    "abbreviation": "GAP",
    "tariffZones": "m",
    "products": [
      "BUS"
    ],
    "latitude": 48.13223,
    "longitude": 11.5753
  },
  {
    "name": "Baaderstraße",
    "place": "München",
    "id": "de:09162:115",
    "divaId": 115,
    "abbreviation": "BAA",
    "tariffZones": "m",
    "products": [
      "BUS"
    ],
    "latitude": 48.13,
    "longitude": 11.57841
  },
  {
    "name": "Schweigerstraße",
    "place": "München",
    "id": "de:09162:116",
    "divaId": 116,
    "abbreviation": "SHW",
    "tariffZones": "m",
    "products": [
      "BUS"
    ],
    "latitude": 48.12654,
    "longitude": 11.58343
  },
  {
    "name": "Taubenstraße",
    "place": "München",
    "id": "de:09162:117",
    "divaId": 117,
    "abbreviation": "TAU",
    "tariffZones": "m",
    "products": [
      "BUS"
    ],
    "latitude": 48.12187,
    "longitude": 11.57887
  },
  {
    "name": "Kirchenstraße",
    "place": "München",
    "id": "de:09162:118",
    "divaId": 118,
    "abbreviation": "KIC",
    "tariffZones": "m",
    "products": [
      "BUS"
    ],
    "latitude": 48.13277,
    "longitude": 11.6051
  },
  {
    "name": "Boschbrücke",
    "place": "München",
    "id": "de:09162:119",
    "divaId": 119,
    "abbreviation": "BBR",
    "tariffZones": "m",
    "products": [
      "BUS"
    ],
    "latitude": 48.13094,
    "longitude": 11.58239
  },
  {
    "name": "Theresienstraße",
    "place": "München",
    "id": "de:09162:120",
    "divaId": 120,
    "abbreviation": "TH",
    "tariffZones": "m",
    "products": [
      "UBAHN"
    ],
    "latitude": 48.15142,
    "longitude": 11.56441
  },
  {
    "name": "Reitmorstraße/Sammlung Schack",
    "place": "München",
    "id": "de:09162:121",
    "divaId": 121,
    "abbreviation": "REM",
    "tariffZones": "m",
    "products": [
      "BUS"
    ],
    "latitude": 48.14203,
    "longitude": 11.59368
  },
  {
    "name": "Ludwigsbrücke",
    "place": "München",
    "id": "de:09162:122",
    "divaId": 122,
    "abbreviation": "LBR",
    "tariffZones": "m",
    "products": [
      "BUS"
    ],
    "latitude": 48.13253,
    "longitude": 11.58532
  },
  {
    "name": "Königinstraße",
    "place": "München",
    "id": "de:09162:123",
    "divaId": 123,
    "abbreviation": "KON",
    "tariffZones": "m",
    "products": [
      "BUS"
    ],
    "latitude": 48.14379,
    "longitude": 11.58501
  },
  {
    "name": "Von-der-Tann-Straße",
    "place": "München",
    "id": "de:09162:124",
    "divaId": 124,
    "abbreviation": "VDT",
    "tariffZones": "m",
    "products": [
      "BUS"
    ],
    "latitude": 48.14502,
    "longitude": 11.57868
  },
  {
    "name": "Türkenstraße",
    "place": "München",
    "id": "de:09162:125",
    "divaId": 125,
    "abbreviation": "TRK",
    "tariffZones": "m",
    "products": [
      "BUS"
    ],
    "latitude": 48.15029,
    "longitude": 11.57595
  },
  {
    "name": "Arcisstraße",
    "place": "München",
    "id": "de:09162:126",
    "divaId": 126,
    "abbreviation": "ARC",
    "tariffZones": "m",
    "products": [
      "BUS"
    ],
    "latitude": 48.15177,
    "longitude": 11.57071
  },
  {
    "name": "Luisenstraße",
    "place": "München",
    "id": "de:09162:127",
    "divaId": 127,
    "abbreviation": "LUI",
    "tariffZones": "m",
    "products": [
      "BUS"
    ],
    "latitude": 48.15252,
    "longitude": 11.56806
  },
  {
    "name": "Augustenstraße",
    "place": "München",
    "id": "de:09162:128",
    "divaId": 128,
    "abbreviation": "AGS",
    "tariffZones": "m",
    "products": [
      "BUS"
    ],
    "latitude": 48.15312,
    "longitude": 11.56591
  },
  {
    "name": "Roecklplatz",
    "place": "München",
    "id": "de:09162:129",
    "divaId": 129,
    "abbreviation": "ROP",
    "tariffZones": "m",
    "products": [
      "BUS"
    ],
    "latitude": 48.1207,
    "longitude": 11.56166
  },
  {
    "name": "Josephsplatz",
    "place": "München",
    "id": "de:09162:130",
    "divaId": 130,
    "abbreviation": "JO",
    "tariffZones": "m",
    "products": [
      "UBAHN",
      "BUS"
    ],
    "latitude": 48.15566,
    "longitude": 11.56706
  },
  {
    "name": "St.-Jakobs-Platz",
    "place": "München",
    "id": "de:09162:131",
    "divaId": 131,
    "abbreviation": "SJP",
    "tariffZones": "m",
    "products": [
      "BUS"
    ],
    "latitude": 48.13532,
    "longitude": 11.57251
  },
  {
    "name": "Hirschauer Straße",
    "place": "München",
    "id": "de:09162:132",
    "divaId": 132,
    "abbreviation": "HSA",
    "tariffZones": "m",
    "products": [
      "BUS"
    ],
    "latitude": 48.1508,
    "longitude": 11.59531
  },
  {
    "name": "Galileiplatz",
    "place": "München",
    "id": "de:09162:133",
    "divaId": 133,
    "abbreviation": "GAL",
    "tariffZones": "m",
    "products": [
      "BUS"
    ],
    "latitude": 48.14425,
    "longitude": 11.60665
  },
  {
    "name": "Wehrlestraße",
    "place": "München",
    "id": "de:09162:134",
    "divaId": 134,
    "abbreviation": "WEH",
    "tariffZones": "m",
    "products": [
      "BUS"
    ],
    "latitude": 48.14821,
    "longitude": 11.60808
  },
  {
    "name": "Chinesischer Turm",
    "place": "München",
    "id": "de:09162:135",
    "divaId": 135,
    "abbreviation": "CHT",
    "tariffZones": "m",
    "products": [
      "BUS"
    ],
    "latitude": 48.15275,
    "longitude": 11.59347
  },
  {
    "name": "Thiemestraße",
    "place": "München",
    "id": "de:09162:136",
    "divaId": 136,
    "abbreviation": "THI",
    "tariffZones": "m",
    "products": [
      "BUS"
    ],
    "latitude": 48.15665,
    "longitude": 11.58871
  },
  {
    "name": "Am Tucherpark",
    "place": "München",
    "id": "de:09162:137",
    "divaId": 137,
    "abbreviation": "TUC",
    "tariffZones": "m",
    "products": [
      "BUS"
    ],
    "latitude": 48.15271,
    "longitude": 11.59908
  },
  {
    "name": "Schwester-Eubulina-Platz",
    "place": "München",
    "id": "de:09162:138",
    "divaId": 138,
    "abbreviation": "SEP",
    "tariffZones": "m",
    "products": [
      "BUS"
    ],
    "latitude": 48.12345,
    "longitude": 11.5932
  },
  {
    "name": "Auerfeldstraße",
    "place": "München",
    "id": "de:09162:139",
    "divaId": 139,
    "abbreviation": "AFD",
    "tariffZones": "m",
    "products": [
      "BUS"
    ],
    "latitude": 48.12364,
    "longitude": 11.59626
  },
  {
    "name": "Hohenzollernplatz",
    "place": "München",
    "id": "de:09162:140",
    "divaId": 140,
    "abbreviation": "HZ",
    "tariffZones": "m",
    "products": [
      "UBAHN",
      "BUS",
      "TRAM"
    ],
    "latitude": 48.16235,
    "longitude": 11.56876
  },
  {
    "name": "Stephansplatz",
    "place": "München",
    "id": "de:09162:141",
    "divaId": 141,
    "abbreviation": "SPH",
    "tariffZones": "m",
    "products": [
      "BUS"
    ],
    "latitude": 48.13078,
    "longitude": 11.5659
  },
  {
    "name": "Maistraße",
    "place": "München",
    "id": "de:09162:142",
    "divaId": 142,
    "abbreviation": "MAS",
    "tariffZones": "m",
    "products": [
      "BUS"
    ],
    "latitude": 48.12939,
    "longitude": 11.56213
  },
  {
    "name": "Waltherstraße",
    "place": "München",
    "id": "de:09162:143",
    "divaId": 143,
    "abbreviation": "WTH",
    "tariffZones": "m",
    "products": [
      "BUS"
    ],
    "latitude": 48.12753,
    "longitude": 11.56384
  },
  {
    "name": "Zenettistraße",
    "place": "München",
    "id": "de:09162:144",
    "divaId": 144,
    "abbreviation": "ZET",
    "tariffZones": "m",
    "products": [
      "BUS"
    ],
    "latitude": 48.12246,
    "longitude": 11.55908
  },
  {
    "name": "ZOB",
    "place": "München",
    "id": "de:09162:145",
    "divaId": 145,
    "abbreviation": null,
    "tariffZones": "m",
    "products": [
      "BUS"
    ],
    "latitude": 48.14229,
    "longitude": 11.54994
  },
  {
    "name": "Ehrengutstraße",
    "place": "München",
    "id": "de:09162:146",
    "divaId": 146,
    "abbreviation": "EHG",
    "tariffZones": "m",
    "products": [
      "BUS"
    ],
    "latitude": 48.12137,
    "longitude": 11.55738
  },
  {
    "name": "Fraunhoferstraße",
    "place": "München",
    "id": "de:09162:150",
    "divaId": 150,
    "abbreviation": "FH",
    "tariffZones": "m",
    "products": [
      "UBAHN",
      "BUS",
      "TRAM"
    ],
    "latitude": 48.12927,
    "longitude": 11.57431
  },
  {
    "name": "Corneliusbrücke",
    "place": "München",
    "id": "de:09162:151",
    "divaId": 151,
    "abbreviation": "CBR",
    "tariffZones": "m",
    "products": [
      "BUS"
    ],
    "latitude": 48.1293,
    "longitude": 11.57928
  },
  {
    "name": "Aurbacherstraße",
    "place": "München",
    "id": "de:09162:152",
    "divaId": 152,
    "abbreviation": "ABC",
    "tariffZones": "m",
    "products": [
      "BUS"
    ],
    "latitude": 48.12244,
    "longitude": 11.5906
  },
  {
    "name": "Dom-Pedro-Straße",
    "place": "München",
    "id": "de:09162:153",
    "divaId": 153,
    "abbreviation": "DPS",
    "tariffZones": "m",
    "products": [
      "BUS"
    ],
    "latitude": 48.15972,
    "longitude": 11.53714
  },
  {
    "name": "Elisenstraße",
    "place": "München",
    "id": "de:09162:156",
    "divaId": 156,
    "abbreviation": "ELI",
    "tariffZones": "m",
    "products": [
      "BUS"
    ],
    "latitude": 48.14247,
    "longitude": 11.5617
  },
  {
    "name": "Nymphenburg Süd",
    "place": "München",
    "id": "de:09162:157",
    "divaId": 157,
    "abbreviation": "NSU",
    "tariffZones": "m",
    "products": [
      "BUS"
    ],
    "latitude": 48.14636,
    "longitude": 11.50246
  },
  {
    "name": "Hubertusbrunnen",
    "place": "München",
    "id": "de:09162:158",
    "divaId": 158,
    "abbreviation": "HBB",
    "tariffZones": "m",
    "products": [
      "BUS"
    ],
    "latitude": 48.15921,
    "longitude": 11.53015
  },
  {
    "name": "Kolumbusplatz (Nord)",
    "place": "München",
    "id": "de:09162:159",
    "divaId": 159,
    "abbreviation": "KPN",
    "tariffZones": "m",
    "products": [
      "BUS"
    ],
    "latitude": 48.12065,
    "longitude": 11.57662
  },
  {
    "name": "Kolumbusplatz",
    "place": "München",
    "id": "de:09162:160",
    "divaId": 160,
    "abbreviation": "KO",
    "tariffZones": "m",
    "products": [
      "UBAHN",
      "BUS"
    ],
    "latitude": 48.11979,
    "longitude": 11.57662
  },
  {
    "name": "St.-Cajetan-Straße",
    "place": "München",
    "id": "de:09162:161",
    "divaId": 161,
    "abbreviation": "STC",
    "tariffZones": "m",
    "products": [
      "BUS"
    ],
    "latitude": 48.1213,
    "longitude": 11.59905
  },
  {
    "name": "Kolumbusplatz/Humboldtstraße",
    "place": "München",
    "id": "de:09162:162",
    "divaId": 162,
    "abbreviation": "KOH",
    "tariffZones": "m",
    "products": [
      "BUS"
    ],
    "latitude": 48.11923,
    "longitude": 11.57582
  },
  {
    "name": "Volkartstraße Ost",
    "place": "München",
    "id": "de:09162:163",
    "divaId": 163,
    "abbreviation": "VOO",
    "tariffZones": "m",
    "products": [
      "BUS"
    ],
    "latitude": 48.15635,
    "longitude": 11.53754
  },
  {
    "name": "Hanebergstraße",
    "place": "München",
    "id": "de:09162:164",
    "divaId": 164,
    "abbreviation": "HBG",
    "tariffZones": "m",
    "products": [
      "BUS"
    ],
    "latitude": 48.16286,
    "longitude": 11.53769
  },
  {
    "name": "Schrannenhalle",
    "place": "München",
    "id": "de:09162:165",
    "divaId": 165,
    "abbreviation": "SNH",
    "tariffZones": "m",
    "products": [
      "BUS"
    ],
    "latitude": 48.13413,
    "longitude": 11.57459
  },
  {
    "name": "Marienplatz (Rindermarkt)",
    "place": "München",
    "id": "de:09162:166",
    "divaId": 166,
    "abbreviation": "MSU",
    "tariffZones": "m",
    "products": [
      "BUS"
    ],
    "latitude": 48.13557,
    "longitude": 11.57371
  },
  {
    "name": "Stiglmaierplatz",
    "place": "München",
    "id": "de:09162:170",
    "divaId": 170,
    "abbreviation": "SM",
    "tariffZones": "m",
    "products": [
      "UBAHN",
      "TRAM"
    ],
    "latitude": 48.14789,
    "longitude": 11.55697
  },
  {
    "name": "Maillingerstraße",
    "place": "München",
    "id": "de:09162:180",
    "divaId": 180,
    "abbreviation": "MA",
    "tariffZones": "m",
    "products": [
      "UBAHN",
      "BUS"
    ],
    "latitude": 48.14998,
    "longitude": 11.54558
  },
  {
    "name": "Gaiglstraße",
    "place": "München",
    "id": "de:09162:185",
    "divaId": 185,
    "abbreviation": "GGL",
    "tariffZones": "m",
    "products": [
      "BUS"
    ],
    "latitude": 48.15242,
    "longitude": 11.5504
  },
  {
    "name": "Rotkreuzplatz",
    "place": "München",
    "id": "de:09162:190",
    "divaId": 190,
    "abbreviation": "RO",
    "tariffZones": "m",
    "products": [
      "UBAHN",
      "BUS",
      "TRAM"
    ],
    "latitude": 48.15418,
    "longitude": 11.53293
  },
  {
    "name": "Oskar-von-Miller-Ring",
    "place": "München",
    "id": "de:09162:197",
    "divaId": 197,
    "abbreviation": "OVM",
    "tariffZones": "m",
    "products": [
      "BUS"
    ],
    "latitude": 48.14537,
    "longitude": 11.57552
  },
  {
    "name": "Westfriedhof",
    "place": "München",
    "id": "de:09162:200",
    "divaId": 200,
    "abbreviation": "WF",
    "tariffZones": "m",
    "products": [
      "UBAHN",
      "BUS",
      "TRAM"
    ],
    "latitude": 48.16996,
    "longitude": 11.52851
  },
  {
    "name": "Neuhausen",
    "place": "München",
    "id": "de:09162:204",
    "divaId": 204,
    "abbreviation": "NEH",
    "tariffZones": "m",
    "products": [
      "BUS",
      "TRAM"
    ],
    "latitude": 48.15635,
    "longitude": 11.5315
  },
  {
    "name": "Volkartstraße",
    "place": "München",
    "id": "de:09162:205",
    "divaId": 205,
    "abbreviation": "VOA",
    "tariffZones": "m",
    "products": [
      "TRAM"
    ],
    "latitude": 48.15521,
    "longitude": 11.5326
  },
  {
    "name": "Sadelerstraße",
    "place": "München",
    "id": "de:09162:206",
    "divaId": 206,
    "abbreviation": "SAD",
    "tariffZones": "m",
    "products": [
      "BUS"
    ],
    "latitude": 48.16861,
    "longitude": 11.52234
  },
  {
    "name": "Winthirplatz",
    "place": "München",
    "id": "de:09162:207",
    "divaId": 207,
    "abbreviation": "WIT",
    "tariffZones": "m",
    "products": [
      "BUS"
    ],
    "latitude": 48.15192,
    "longitude": 11.52801
  },
  {
    "name": "Dankwartstraße",
    "place": "München",
    "id": "de:09162:209",
    "divaId": 209,
    "abbreviation": "DWS",
    "tariffZones": "m",
    "products": [
      "BUS"
    ],
    "latitude": 48.15137,
    "longitude": 11.52372
  },
  {
    "name": "Amalienburgstraße",
    "place": "München",
    "id": "de:09162:210",
    "divaId": 210,
    "abbreviation": "AMA",
    "tariffZones": "m",
    "products": [
      "BUS",
      "TRAM"
    ],
    "latitude": 48.16567,
    "longitude": 11.49328
  },
  {
    "name": "Botanischer Garten",
    "place": "München",
    "id": "de:09162:211",
    "divaId": 211,
    "abbreviation": "BOT",
    "tariffZones": "m",
    "products": [
      "BUS",
      "TRAM"
    ],
    "latitude": 48.16447,
    "longitude": 11.50265
  },
  {
    "name": "Maria-Ward-Straße",
    "place": "München",
    "id": "de:09162:212",
    "divaId": 212,
    "abbreviation": "MWA",
    "tariffZones": "m",
    "products": [
      "BUS",
      "TRAM"
    ],
    "latitude": 48.16399,
    "longitude": 11.5063
  },
  {
    "name": "Dall'Armistraße",
    "place": "München",
    "id": "de:09162:213",
    "divaId": 213,
    "abbreviation": "DAL",
    "tariffZones": "m",
    "products": [
      "BUS",
      "TRAM"
    ],
    "latitude": 48.16117,
    "longitude": 11.51141
  },
  {
    "name": "Schloss Nymphenburg",
    "place": "München",
    "id": "de:09162:214",
    "divaId": 214,
    "abbreviation": "SNY",
    "tariffZones": "m",
    "products": [
      "BUS",
      "TRAM"
    ],
    "latitude": 48.15852,
    "longitude": 11.51147
  },
  {
    "name": "Romanplatz",
    "place": "München",
    "id": "de:09162:215",
    "divaId": 215,
    "abbreviation": "ROM",
    "tariffZones": "m",
    "products": [
      "BUS",
      "TRAM"
    ],
    "latitude": 48.15507,
    "longitude": 11.51145
  },
  {
    "name": "Steubenplatz",
    "place": "München",
    "id": "de:09162:216",
    "divaId": 216,
    "abbreviation": "STB",
    "tariffZones": "m",
    "products": [
      "BUS",
      "TRAM"
    ],
    "latitude": 48.15013,
    "longitude": 11.52027
  },
  {
    "name": "Briefzentrum",
    "place": "München",
    "id": "de:09162:217",
    "divaId": 217,
    "abbreviation": "BRZ",
    "tariffZones": "m",
    "products": [
      "TRAM"
    ],
    "latitude": 48.14911,
    "longitude": 11.52426
  },
  {
    "name": "Burghausener Straße",
    "place": "München",
    "id": "de:09162:218",
    "divaId": 218,
    "abbreviation": "BUG",
    "tariffZones": "m",
    "products": [
      "TRAM"
    ],
    "latitude": 48.14729,
    "longitude": 11.5295
  },
  {
    "name": "Kriemhildenstraße",
    "place": "München",
    "id": "de:09162:219",
    "divaId": 219,
    "abbreviation": "KRI",
    "tariffZones": "m",
    "products": [
      "TRAM"
    ],
    "latitude": 48.15231,
    "longitude": 11.51523
  },
  {
    "name": "Renatastraße",
    "place": "München",
    "id": "de:09162:220",
    "divaId": 220,
    "abbreviation": "REN",
    "tariffZones": "m",
    "products": [
      "TRAM"
    ],
    "latitude": 48.15662,
    "longitude": 11.52658
  },
  {
    "name": "Hubertusstraße",
    "place": "München",
    "id": "de:09162:221",
    "divaId": 221,
    "abbreviation": "HUB",
    "tariffZones": "m",
    "products": [
      "TRAM"
    ],
    "latitude": 48.15596,
    "longitude": 11.51993
  },
  {
    "name": "Marsstraße",
    "place": "München",
    "id": "de:09162:222",
    "divaId": 222,
    "abbreviation": "MRS",
    "tariffZones": "m",
    "products": [
      "TRAM"
    ],
    "latitude": 48.14507,
    "longitude": 11.54175
  },
  {
    "name": "Deroystraße",
    "place": "München",
    "id": "de:09162:223",
    "divaId": 223,
    "abbreviation": "DER",
    "tariffZones": "m",
    "products": [
      "TRAM"
    ],
    "latitude": 48.14427,
    "longitude": 11.54544
  },
  {
    "name": "Mettenstraße",
    "place": "München",
    "id": "de:09162:224",
    "divaId": 224,
    "abbreviation": "MET",
    "tariffZones": "m",
    "products": [
      "BUS"
    ],
    "latitude": 48.16824,
    "longitude": 11.5145
  },
  {
    "name": "Herthastraße",
    "place": "München",
    "id": "de:09162:225",
    "divaId": 225,
    "abbreviation": "HTH",
    "tariffZones": "m",
    "products": [
      "BUS"
    ],
    "latitude": 48.14943,
    "longitude": 11.50339
  },
  {
    "name": "Kemnatenstraße",
    "place": "München",
    "id": "de:09162:226",
    "divaId": 226,
    "abbreviation": "KEN",
    "tariffZones": "m",
    "products": [
      "BUS"
    ],
    "latitude": 48.15133,
    "longitude": 11.50418
  },
  {
    "name": "Hirschgartenallee",
    "place": "München",
    "id": "de:09162:227",
    "divaId": 227,
    "abbreviation": "HIR",
    "tariffZones": "m",
    "products": [
      "BUS"
    ],
    "latitude": 48.15291,
    "longitude": 11.50812
  },
  {
    "name": "Nederlinger Straße",
    "place": "München",
    "id": "de:09162:228",
    "divaId": 228,
    "abbreviation": "NDL",
    "tariffZones": "m",
    "products": [
      "BUS"
    ],
    "latitude": 48.17007,
    "longitude": 11.51058
  },
  {
    "name": "Netzerstraße",
    "place": "München",
    "id": "de:09162:229",
    "divaId": 229,
    "abbreviation": null,
    "tariffZones": "m",
    "products": [
      "BUS"
    ],
    "latitude": 48.17526,
    "longitude": 11.50745
  },
  {
    "name": "Skagerrakstraße",
    "place": "München",
    "id": "de:09162:230",
    "divaId": 230,
    "abbreviation": "SKG",
    "tariffZones": "m",
    "products": [
      "BUS"
    ],
    "latitude": 48.17276,
    "longitude": 11.50449
  },
  {
    "name": "Baubergerstraße",
    "place": "München",
    "id": "de:09162:231",
    "divaId": 231,
    "abbreviation": "BAB",
    "tariffZones": "m",
    "products": [
      "BUS"
    ],
    "latitude": 48.1771,
    "longitude": 11.50601
  },
  {
    "name": "Hopfenstraße",
    "place": "München",
    "id": "de:09162:232",
    "divaId": 232,
    "abbreviation": "HPF",
    "tariffZones": "m",
    "products": [
      "TRAM"
    ],
    "latitude": 48.14238,
    "longitude": 11.55428
  },
  {
    "name": "Amphionpark",
    "place": "München",
    "id": "de:09162:233",
    "divaId": 233,
    "abbreviation": "APH",
    "tariffZones": "m",
    "products": [
      "BUS"
    ],
    "latitude": 48.17344,
    "longitude": 11.51501
  },
  {
    "name": "Schragenhofstraße",
    "place": "München",
    "id": "de:09162:234",
    "divaId": 234,
    "abbreviation": null,
    "tariffZones": "m",
    "products": [
      "BUS"
    ],
    "latitude": 48.17248,
    "longitude": 11.50227
  },
  {
    "name": "Lustheimstraße",
    "place": "München",
    "id": "de:09162:235",
    "divaId": 235,
    "abbreviation": "LUS",
    "tariffZones": "m|1",
    "products": [
      "BUS"
    ],
    "latitude": 48.16378,
    "longitude": 11.48634
  },
  {
    "name": "In den Kirschen",
    "place": "München",
    "id": "de:09162:236",
    "divaId": 236,
    "abbreviation": "IDK",
    "tariffZones": "m",
    "products": [
      "BUS"
    ],
    "latitude": 48.16723,
    "longitude": 11.50952
  },
  {
    "name": "Bunzlauer Platz",
    "place": "München",
    "id": "de:09162:237",
    "divaId": 237,
    "abbreviation": "BUP",
    "tariffZones": "m|1",
    "products": [
      "BUS"
    ],
    "latitude": 48.17918,
    "longitude": 11.50711
  },
  {
    "name": "Winfriedstraße",
    "place": "München",
    "id": "de:09162:238",
    "divaId": 238,
    "abbreviation": "WFS",
    "tariffZones": "m",
    "products": [
      "BUS"
    ],
    "latitude": 48.14739,
    "longitude": 11.50332
  },
  {
    "name": "Nederlinger Straße (West)",
    "place": "München",
    "id": "de:09162:239",
    "divaId": 239,
    "abbreviation": "NDW",
    "tariffZones": "m",
    "products": [
      "BUS"
    ],
    "latitude": 48.1707,
    "longitude": 11.50891
  },
  {
    "name": "Theresienwiese",
    "place": "München",
    "id": "de:09162:240",
    "divaId": 240,
    "abbreviation": "TW",
    "tariffZones": "m",
    "products": [
      "UBAHN"
    ],
    "latitude": 48.13572,
    "longitude": 11.55227
  },
  {
    "name": "Schwanthalerhöhe",
    "place": "München",
    "id": "de:09162:250",
    "divaId": 250,
    "abbreviation": "SH",
    "tariffZones": "m",
    "products": [
      "UBAHN",
      "BUS"
    ],
    "latitude": 48.13377,
    "longitude": 11.54101
  },
  {
    "name": "Theresienhöhe",
    "place": "München",
    "id": "de:09162:251",
    "divaId": 251,
    "abbreviation": "THH",
    "tariffZones": "m",
    "products": [
      "BUS"
    ],
    "latitude": 48.13256,
    "longitude": 11.54597
  },
  {
    "name": "Westendstraße",
    "place": "München",
    "id": "de:09162:260",
    "divaId": 260,
    "abbreviation": "WS",
    "tariffZones": "m",
    "products": [
      "UBAHN",
      "BUS",
      "TRAM"
    ],
    "latitude": 48.13475,
    "longitude": 11.52145
  },
  {
    "name": "Friedenheimer Straße",
    "place": "München",
    "id": "de:09162:270",
    "divaId": 270,
    "abbreviation": "FI",
    "tariffZones": "m",
    "products": [
      "UBAHN"
    ],
    "latitude": 48.13517,
    "longitude": 11.51095
  },
  {
    "name": "Laimer Platz",
    "place": "München",
    "id": "de:09162:280",
    "divaId": 280,
    "abbreviation": "LP",
    "tariffZones": "m",
    "products": [
      "UBAHN",
      "BUS"
    ],
    "latitude": 48.13546,
    "longitude": 11.50192
  },
  {
    "name": "Stadtwerke München",
    "place": "München",
    "id": "de:09162:285",
    "divaId": 285,
    "abbreviation": "SWM",
    "tariffZones": "m",
    "products": [
      "TRAM"
    ],
    "latitude": 48.17127,
    "longitude": 11.53059
  },
  {
    "name": "Olympiasee",
    "place": "München",
    "id": "de:09162:290",
    "divaId": 290,
    "abbreviation": "OMS",
    "tariffZones": "m",
    "products": [
      "BUS"
    ],
    "latitude": 48.17144,
    "longitude": 11.54598
  },
  {
    "name": "Sapporobogen",
    "place": "München",
    "id": "de:09162:291",
    "divaId": 291,
    "abbreviation": "SAP",
    "tariffZones": "m",
    "products": [
      "BUS"
    ],
    "latitude": 48.1694,
    "longitude": 11.53744
  },
  {
    "name": "Angererstraße",
    "place": "München",
    "id": "de:09162:292",
    "divaId": 292,
    "abbreviation": "AGE",
    "tariffZones": "m",
    "products": [
      "BUS"
    ],
    "latitude": 48.16741,
    "longitude": 11.57077
  },
  {
    "name": "Georg-Birk-Straße",
    "place": "München",
    "id": "de:09162:293",
    "divaId": 293,
    "abbreviation": "GBI",
    "tariffZones": "m",
    "products": [
      "BUS"
    ],
    "latitude": 48.16392,
    "longitude": 11.55697
  },
  {
    "name": "Ackermannbogen",
    "place": "München",
    "id": "de:09162:294",
    "divaId": 294,
    "abbreviation": "AMB",
    "tariffZones": "m",
    "products": [
      "BUS"
    ],
    "latitude": 48.16504,
    "longitude": 11.5562
  },
  {
    "name": "Deidesheimer Straße",
    "place": "München",
    "id": "de:09162:296",
    "divaId": 296,
    "abbreviation": "DEI",
    "tariffZones": "m",
    "products": [
      "BUS"
    ],
    "latitude": 48.16861,
    "longitude": 11.55942
  },
  {
    "name": "Margarete-Steiff-Straße",
    "place": "München",
    "id": "de:09162:299",
    "divaId": 299,
    "abbreviation": "MFF",
    "tariffZones": "m|1",
    "products": [
      "BUS"
    ],
    "latitude": 48.18053,
    "longitude": 11.50153
  },
  {
    "name": "Moosach",
    "place": "München",
    "id": "de:09162:300",
    "divaId": 300,
    "abbreviation": "MO",
    "tariffZones": "m|1",
    "products": [
      "UBAHN",
      "BUS",
      "TRAM",
      "SBAHN",
      "BAHN"
    ],
    "latitude": 48.18097,
    "longitude": 11.50815
  },
  {
    "name": "Pelkovenstraße",
    "place": "München",
    "id": "de:09162:301",
    "divaId": 301,
    "abbreviation": "PEL",
    "tariffZones": "m|1",
    "products": [
      "BUS",
      "TRAM"
    ],
    "latitude": 48.18107,
    "longitude": 11.51093
  },
  {
    "name": "Hugo-Troendle-Straße",
    "place": "München",
    "id": "de:09162:302",
    "divaId": 302,
    "abbreviation": "HTS",
    "tariffZones": "m",
    "products": [
      "TRAM"
    ],
    "latitude": 48.17926,
    "longitude": 11.51492
  },
  {
    "name": "Wintrichring",
    "place": "München",
    "id": "de:09162:303",
    "divaId": 303,
    "abbreviation": "WIR",
    "tariffZones": "m",
    "products": [
      "BUS",
      "TRAM"
    ],
    "latitude": 48.17593,
    "longitude": 11.52174
  },
  {
    "name": "Hanauer Straße",
    "place": "München",
    "id": "de:09162:304",
    "divaId": 304,
    "abbreviation": "HAN",
    "tariffZones": "m",
    "products": [
      "BUS",
      "TRAM"
    ],
    "latitude": 48.17175,
    "longitude": 11.52861
  },
  {
    "name": "Borstei",
    "place": "München",
    "id": "de:09162:305",
    "divaId": 305,
    "abbreviation": "BOR",
    "tariffZones": "m",
    "products": [
      "TRAM"
    ],
    "latitude": 48.16967,
    "longitude": 11.53307
  },
  {
    "name": "Olympiapark West",
    "place": "München",
    "id": "de:09162:306",
    "divaId": 306,
    "abbreviation": "OYT",
    "tariffZones": "m",
    "products": [
      "BUS",
      "TRAM"
    ],
    "latitude": 48.16639,
    "longitude": 11.53742
  },
  {
    "name": "Heideckstraße",
    "place": "München",
    "id": "de:09162:307",
    "divaId": 307,
    "abbreviation": "HET",
    "tariffZones": "m",
    "products": [
      "TRAM"
    ],
    "latitude": 48.16287,
    "longitude": 11.54226
  },
  {
    "name": "Gartenstraße",
    "place": "München",
    "id": "de:09162:308",
    "divaId": 308,
    "abbreviation": "GAR",
    "tariffZones": "m",
    "products": [
      "TRAM"
    ],
    "latitude": 48.17215,
    "longitude": 11.56492
  },
  {
    "name": "Ackermannstraße",
    "place": "München",
    "id": "de:09162:309",
    "divaId": 309,
    "abbreviation": "AKE",
    "tariffZones": "m",
    "products": [
      "BUS",
      "TRAM"
    ],
    "latitude": 48.1679,
    "longitude": 11.5649
  },
  {
    "name": "Fasanerie",
    "place": "München",
    "id": "de:09162:310",
    "divaId": 310,
    "abbreviation": "FBF",
    "tariffZones": "m|1",
    "products": [
      "BUS",
      "SBAHN"
    ],
    "latitude": 48.19695,
    "longitude": 11.52448
  },
  {
    "name": "Herzogstraße",
    "place": "München",
    "id": "de:09162:311",
    "divaId": 311,
    "abbreviation": "HRZ",
    "tariffZones": "m",
    "products": [
      "TRAM"
    ],
    "latitude": 48.16348,
    "longitude": 11.56418
  },
  {
    "name": "Georg-Brauchle-Ring",
    "place": "München",
    "id": "de:09162:312",
    "divaId": 312,
    "abbreviation": "GB",
    "tariffZones": "m",
    "products": [
      "UBAHN",
      "BUS"
    ],
    "latitude": 48.17719,
    "longitude": 11.52907
  },
  {
    "name": "Ehrenbreitsteiner Straße",
    "place": "München",
    "id": "de:09162:313",
    "divaId": 313,
    "abbreviation": "EHE",
    "tariffZones": "m",
    "products": [
      "BUS"
    ],
    "latitude": 48.1873,
    "longitude": 11.52872
  },
  {
    "name": "Riesstraße",
    "place": "München",
    "id": "de:09162:314",
    "divaId": 314,
    "abbreviation": "RIT",
    "tariffZones": "m",
    "products": [
      "BUS"
    ],
    "latitude": 48.18457,
    "longitude": 11.53329
  },
  {
    "name": "Bingener Straße",
    "place": "München",
    "id": "de:09162:316",
    "divaId": 316,
    "abbreviation": "BIN",
    "tariffZones": "m",
    "products": [
      "BUS"
    ],
    "latitude": 48.18199,
    "longitude": 11.52144
  },
  {
    "name": "Olympia-Einkaufszentrum West",
    "place": "München",
    "id": "de:09162:318",
    "divaId": 318,
    "abbreviation": "OYW",
    "tariffZones": "m",
    "products": [
      "BUS"
    ],
    "latitude": 48.18401,
    "longitude": 11.5314
  },
  {
    "name": "Olympia-Einkaufszentrum Ost",
    "place": "München",
    "id": "de:09162:319",
    "divaId": 319,
    "abbreviation": "OYO",
    "tariffZones": "m",
    "products": [
      "BUS"
    ],
    "latitude": 48.18317,
    "longitude": 11.5368
  },
  {
    "name": "Feldmoching",
    "place": "München",
    "id": "de:09162:320",
    "divaId": 320,
    "abbreviation": "FM",
    "tariffZones": "m|1",
    "products": [
      "UBAHN",
      "BUS",
      "SBAHN",
      "BAHN"
    ],
    "latitude": 48.21383,
    "longitude": 11.54083
  },
  {
    "name": "Olympia-Pressestadt",
    "place": "München",
    "id": "de:09162:321",
    "divaId": 321,
    "abbreviation": "OYP",
    "tariffZones": "m",
    "products": [
      "BUS"
    ],
    "latitude": 48.17992,
    "longitude": 11.53676
  },
  {
    "name": "Lassallestraße",
    "place": "München",
    "id": "de:09162:322",
    "divaId": 322,
    "abbreviation": "LAS",
    "tariffZones": "m",
    "products": [
      "BUS"
    ],
    "latitude": 48.18704,
    "longitude": 11.5339
  },
  {
    "name": "Olympiapark Nord",
    "place": "München",
    "id": "de:09162:323",
    "divaId": 323,
    "abbreviation": "OYN",
    "tariffZones": "m",
    "products": [
      "BUS"
    ],
    "latitude": 48.18637,
    "longitude": 11.5415
  },
  {
    "name": "Lerchenauer Straße",
    "place": "München",
    "id": "de:09162:324",
    "divaId": 324,
    "abbreviation": "LER",
    "tariffZones": "m",
    "products": [
      "BUS"
    ],
    "latitude": 48.18604,
    "longitude": 11.55149
  },
  {
    "name": "Olympiapark Eissportstadion",
    "place": "München",
    "id": "de:09162:325",
    "divaId": 325,
    "abbreviation": "OYE",
    "tariffZones": "m",
    "products": [
      "BUS"
    ],
    "latitude": 48.17608,
    "longitude": 11.55961
  },
  {
    "name": "Curt-Mezger-Platz",
    "place": "München",
    "id": "de:09162:326",
    "divaId": 326,
    "abbreviation": "CMP",
    "tariffZones": "m",
    "products": [
      "BUS"
    ],
    "latitude": 48.18129,
    "longitude": 11.56692
  },
  {
    "name": "Andernacher Straße",
    "place": "München",
    "id": "de:09162:328",
    "divaId": 328,
    "abbreviation": "AND",
    "tariffZones": "m",
    "products": [
      "BUS"
    ],
    "latitude": 48.18546,
    "longitude": 11.52443
  },
  {
    "name": "Anhalter Platz",
    "place": "München",
    "id": "de:09162:329",
    "divaId": 329,
    "abbreviation": "ANP",
    "tariffZones": "m",
    "products": [
      "BUS"
    ],
    "latitude": 48.18685,
    "longitude": 11.56228
  },
  {
    "name": "Gärtnerstraße",
    "place": "München",
    "id": "de:09162:330",
    "divaId": 330,
    "abbreviation": "GAE",
    "tariffZones": "m",
    "products": [
      "BUS"
    ],
    "latitude": 48.1777,
    "longitude": 11.53653
  },
  {
    "name": "Moosacher Straße",
    "place": "München",
    "id": "de:09162:331",
    "divaId": 331,
    "abbreviation": "MSS",
    "tariffZones": "m|1",
    "products": [
      "BUS"
    ],
    "latitude": 48.18718,
    "longitude": 11.56608
  },
  {
    "name": "Dessauerstraße",
    "place": "München",
    "id": "de:09162:333",
    "divaId": 333,
    "abbreviation": "DES",
    "tariffZones": "m",
    "products": [
      "BUS"
    ],
    "latitude": 48.18073,
    "longitude": 11.5316
  },
  {
    "name": "Milbertshofener Platz",
    "place": "München",
    "id": "de:09162:334",
    "divaId": 334,
    "abbreviation": "MIP",
    "tariffZones": "m",
    "products": [
      "BUS"
    ],
    "latitude": 48.18458,
    "longitude": 11.56654
  },
  {
    "name": "Schopenhauerstraße",
    "place": "München",
    "id": "de:09162:335",
    "divaId": 335,
    "abbreviation": "SHP",
    "tariffZones": "m",
    "products": [
      "BUS"
    ],
    "latitude": 48.17941,
    "longitude": 11.56391
  },
  {
    "name": "Lüneburger Straße",
    "place": "München",
    "id": "de:09162:336",
    "divaId": 336,
    "abbreviation": "LUE",
    "tariffZones": "m",
    "products": [
      "BUS"
    ],
    "latitude": 48.18311,
    "longitude": 11.56309
  },
  {
    "name": "Detmoldstraße",
    "place": "München",
    "id": "de:09162:337",
    "divaId": 337,
    "abbreviation": "DET",
    "tariffZones": "m|1",
    "products": [
      "BUS"
    ],
    "latitude": 48.19234,
    "longitude": 11.56537
  },
  {
    "name": "Schittgablerstraße",
    "place": "München",
    "id": "de:09162:338",
    "divaId": 338,
    "abbreviation": "SCG",
    "tariffZones": "m|1",
    "products": [
      "BUS"
    ],
    "latitude": 48.1914,
    "longitude": 11.54897
  },
  {
    "name": "Petuelring",
    "place": "München",
    "id": "de:09162:340",
    "divaId": 340,
    "abbreviation": "PR",
    "tariffZones": "m",
    "products": [
      "UBAHN",
      "BUS",
      "TRAM"
    ],
    "latitude": 48.17569,
    "longitude": 11.56587
  },
  {
    "name": "Himmelschlüsselstraße",
    "place": "München",
    "id": "de:09162:341",
    "divaId": 341,
    "abbreviation": "HME",
    "tariffZones": "m|1",
    "products": [
      "BUS"
    ],
    "latitude": 48.19543,
    "longitude": 11.53489
  },
  {
    "name": "Lerchenauer See",
    "place": "München",
    "id": "de:09162:342",
    "divaId": 342,
    "abbreviation": "LSE",
    "tariffZones": "m|1",
    "products": [
      "BUS"
    ],
    "latitude": 48.198,
    "longitude": 11.53558
  },
  {
    "name": "Max-Wönner-Straße",
    "place": "München",
    "id": "de:09162:343",
    "divaId": 343,
    "abbreviation": "MWO",
    "tariffZones": "m|1",
    "products": [
      "BUS"
    ],
    "latitude": 48.19936,
    "longitude": 11.53574
  },
  {
    "name": "Franz-Sperr-Weg",
    "place": "München",
    "id": "de:09162:344",
    "divaId": 344,
    "abbreviation": "FSW",
    "tariffZones": "m|1",
    "products": [
      "BUS"
    ],
    "latitude": 48.2039,
    "longitude": 11.53878
  },
  {
    "name": "Paidarstraße",
    "place": "München",
    "id": "de:09162:346",
    "divaId": 346,
    "abbreviation": "PAI",
    "tariffZones": "m|1",
    "products": [
      "BUS"
    ],
    "latitude": 48.2148,
    "longitude": 11.54495
  },
  {
    "name": "Stanigplatz",
    "place": "München",
    "id": "de:09162:349",
    "divaId": 349,
    "abbreviation": "SNI",
    "tariffZones": "m|1",
    "products": [
      "BUS"
    ],
    "latitude": 48.2165,
    "longitude": 11.55324
  },
  {
    "name": "Olympiazentrum",
    "place": "München",
    "id": "de:09162:350",
    "divaId": 350,
    "abbreviation": "OZ",
    "tariffZones": "m",
    "products": [
      "UBAHN",
      "BUS"
    ],
    "latitude": 48.17935,
    "longitude": 11.55592
  },
  {
    "name": "Stösserstraße",
    "place": "München",
    "id": "de:09162:351",
    "divaId": 351,
    "abbreviation": "SOE",
    "tariffZones": "m|1",
    "products": [
      "BUS"
    ],
    "latitude": 48.21976,
    "longitude": 11.55708
  },
  {
    "name": "Irisstraße",
    "place": "München",
    "id": "de:09162:352",
    "divaId": 352,
    "abbreviation": "IRI",
    "tariffZones": "m|1",
    "products": [
      "BUS"
    ],
    "latitude": 48.19666,
    "longitude": 11.54569
  },
  {
    "name": "Robinienstraße",
    "place": "München",
    "id": "de:09162:353",
    "divaId": 353,
    "abbreviation": "ROI",
    "tariffZones": "m|1",
    "products": [
      "BUS"
    ],
    "latitude": 48.20061,
    "longitude": 11.54315
  },
  {
    "name": "Goldlackplatz",
    "place": "München",
    "id": "de:09162:354",
    "divaId": 354,
    "abbreviation": "GCK",
    "tariffZones": "m|1",
    "products": [
      "BUS"
    ],
    "latitude": 48.20019,
    "longitude": 11.55022
  },
  {
    "name": "Gundermannstraße",
    "place": "München",
    "id": "de:09162:355",
    "divaId": 355,
    "abbreviation": "GNM",
    "tariffZones": "m|1",
    "products": [
      "BUS"
    ],
    "latitude": 48.20419,
    "longitude": 11.5526
  },
  {
    "name": "Hasenbergl Süd",
    "place": "München",
    "id": "de:09162:356",
    "divaId": 356,
    "abbreviation": "HGS",
    "tariffZones": "m|1",
    "products": [
      "BUS"
    ],
    "latitude": 48.20825,
    "longitude": 11.5524
  },
  {
    "name": "Ittlingerstraße",
    "place": "München",
    "id": "de:09162:357",
    "divaId": 357,
    "abbreviation": "ITL",
    "tariffZones": "m|1",
    "products": [
      "BUS"
    ],
    "latitude": 48.20834,
    "longitude": 11.55578
  },
  {
    "name": "Hasenberglstraße",
    "place": "München",
    "id": "de:09162:358",
    "divaId": 358,
    "abbreviation": "HSL",
    "tariffZones": "m|1",
    "products": [
      "BUS"
    ],
    "latitude": 48.20712,
    "longitude": 11.56025
  },
  {
    "name": "Feldmochinger Anger",
    "place": "München",
    "id": "de:09162:359",
    "divaId": 359,
    "abbreviation": "FEA",
    "tariffZones": "m|1",
    "products": [
      "BUS"
    ],
    "latitude": 48.2091,
    "longitude": 11.54385
  },
  {
    "name": "Olympia-Einkaufszentrum",
    "place": "München",
    "id": "de:09162:360",
    "divaId": 360,
    "abbreviation": "OE",
    "tariffZones": "m",
    "products": [
      "UBAHN",
      "BUS"
    ],
    "latitude": 48.1822,
    "longitude": 11.53003
  },
  {
    "name": "Pulverturmstraße",
    "place": "München",
    "id": "de:09162:363",
    "divaId": 363,
    "abbreviation": "PUV",
    "tariffZones": "m|1",
    "products": [
      "BUS"
    ],
    "latitude": 48.20193,
    "longitude": 11.5535
  },
  {
    "name": "Gröbenzeller Straße",
    "place": "München",
    "id": "de:09162:366",
    "divaId": 366,
    "abbreviation": "GZS",
    "tariffZones": "m|1",
    "products": [
      "BUS"
    ],
    "latitude": 48.18321,
    "longitude": 11.50778
  },
  {
    "name": "Feldmoching Bf. Ost",
    "place": "München",
    "id": "de:09162:368",
    "divaId": 368,
    "abbreviation": "FEO",
    "tariffZones": "m|1",
    "products": [
      "BUS"
    ],
    "latitude": 48.21384,
    "longitude": 11.54323
  },
  {
    "name": "Riesstraße Süd",
    "place": "München",
    "id": "de:09162:369",
    "divaId": 369,
    "abbreviation": "RSU",
    "tariffZones": "m",
    "products": [
      "BUS"
    ],
    "latitude": 48.17634,
    "longitude": 11.53631
  },
  {
    "name": "Moosacher St.-Martins-Platz",
    "place": "München",
    "id": "de:09162:370",
    "divaId": 370,
    "abbreviation": "MM",
    "tariffZones": "m",
    "products": [
      "UBAHN",
      "BUS"
    ],
    "latitude": 48.18186,
    "longitude": 11.51859
  },
  {
    "name": "Merseburger Straße",
    "place": "München",
    "id": "de:09162:376",
    "divaId": 376,
    "abbreviation": "MEB",
    "tariffZones": "m",
    "products": [
      "BUS"
    ],
    "latitude": 48.18595,
    "longitude": 11.52115
  },
  {
    "name": "Claudiusplatz",
    "place": "München",
    "id": "de:09162:377",
    "divaId": 377,
    "abbreviation": "CLP",
    "tariffZones": "m",
    "products": [
      "BUS"
    ],
    "latitude": 48.18201,
    "longitude": 11.52545
  },
  {
    "name": "Oberwiesenfeld",
    "place": "München",
    "id": "de:09162:380",
    "divaId": 380,
    "abbreviation": "ON",
    "tariffZones": "m",
    "products": [
      "UBAHN",
      "BUS"
    ],
    "latitude": 48.186,
    "longitude": 11.54765
  },
  {
    "name": "Ludwigsfeld (Campingplatz)",
    "place": "München",
    "id": "de:09162:381",
    "divaId": 381,
    "abbreviation": "LUC",
    "tariffZones": "m|1",
    "products": [
      "BUS"
    ],
    "latitude": 48.199,
    "longitude": 11.49734
  },
  {
    "name": "Am Blütenanger",
    "place": "München",
    "id": "de:09162:382",
    "divaId": 382,
    "abbreviation": "BAN",
    "tariffZones": "m|1",
    "products": [
      "BUS"
    ],
    "latitude": 48.20177,
    "longitude": 11.50644
  },
  {
    "name": "Pappelallee",
    "place": "München",
    "id": "de:09162:383",
    "divaId": 383,
    "abbreviation": "PAP",
    "tariffZones": "m|1",
    "products": [
      "BUS"
    ],
    "latitude": 48.20045,
    "longitude": 11.51271
  },
  {
    "name": "Sonnentaustraße",
    "place": "München",
    "id": "de:09162:384",
    "divaId": 384,
    "abbreviation": "SON",
    "tariffZones": "m|1",
    "products": [
      "BUS"
    ],
    "latitude": 48.1992,
    "longitude": 11.51876
  },
  {
    "name": "Kuckucksblumenstraße",
    "place": "München",
    "id": "de:09162:385",
    "divaId": 385,
    "abbreviation": "KUK",
    "tariffZones": "m|1",
    "products": [
      "BUS"
    ],
    "latitude": 48.19887,
    "longitude": 11.5224
  },
  {
    "name": "Frauenmantelanger",
    "place": "München",
    "id": "de:09162:396",
    "divaId": 396,
    "abbreviation": "FMA",
    "tariffZones": "m|1",
    "products": [
      "BUS"
    ],
    "latitude": 48.20936,
    "longitude": 11.56812
  },
  {
    "name": "Pulverturm",
    "place": "München",
    "id": "de:09162:397",
    "divaId": 397,
    "abbreviation": "PUL",
    "tariffZones": "m|1",
    "products": [
      "BUS"
    ],
    "latitude": 48.196,
    "longitude": 11.56487
  },
  {
    "name": "Scheidplatz Süd",
    "place": "München",
    "id": "de:09162:398",
    "divaId": 398,
    "abbreviation": "SCS",
    "tariffZones": "m",
    "products": [
      "BUS"
    ],
    "latitude": 48.17025,
    "longitude": 11.57398
  },
  {
    "name": "Olschewskibogen",
    "place": "München",
    "id": "de:09162:399",
    "divaId": 399,
    "abbreviation": "OLB",
    "tariffZones": "m|1",
    "products": [
      "BUS"
    ],
    "latitude": 48.20025,
    "longitude": 11.55894
  },
  {
    "name": "Scheidplatz",
    "place": "München",
    "id": "de:09162:400",
    "divaId": 400,
    "abbreviation": "SP",
    "tariffZones": "m",
    "products": [
      "UBAHN",
      "BUS",
      "TRAM"
    ],
    "latitude": 48.17154,
    "longitude": 11.57293
  },
  {
    "name": "Augustin-Rösch-Straße",
    "place": "München",
    "id": "de:09162:401",
    "divaId": 401,
    "abbreviation": "ARS",
    "tariffZones": "m|1",
    "products": [
      "BUS"
    ],
    "latitude": 48.20127,
    "longitude": 11.56418
  },
  {
    "name": "Röblingweg",
    "place": "München",
    "id": "de:09162:402",
    "divaId": 402,
    "abbreviation": "ROE",
    "tariffZones": "m|1",
    "products": [
      "BUS"
    ],
    "latitude": 48.20492,
    "longitude": 11.5728
  },
  {
    "name": "Trenkleweg",
    "place": "München",
    "id": "de:09162:404",
    "divaId": 404,
    "abbreviation": "TRE",
    "tariffZones": "m|1",
    "products": [
      "BUS"
    ],
    "latitude": 48.21004,
    "longitude": 11.57176
  },
  {
    "name": "Weitlstraße",
    "place": "München",
    "id": "de:09162:405",
    "divaId": 405,
    "abbreviation": "WTL",
    "tariffZones": "m|1",
    "products": [
      "BUS"
    ],
    "latitude": 48.20852,
    "longitude": 11.56303
  },
  {
    "name": "Dientzenhoferstraße",
    "place": "München",
    "id": "de:09162:406",
    "divaId": 406,
    "abbreviation": "DTZ",
    "tariffZones": "m|1",
    "products": [
      "BUS"
    ],
    "latitude": 48.20476,
    "longitude": 11.57733
  },
  {
    "name": "Abtstraße",
    "place": "München",
    "id": "de:09162:407",
    "divaId": 407,
    "abbreviation": "ABT",
    "tariffZones": "m",
    "products": [
      "BUS"
    ],
    "latitude": 48.18423,
    "longitude": 11.57877
  },
  {
    "name": "Weyprechtstraße",
    "place": "München",
    "id": "de:09162:408",
    "divaId": 408,
    "abbreviation": "WEY",
    "tariffZones": "m|1",
    "products": [
      "BUS"
    ],
    "latitude": 48.20476,
    "longitude": 11.56396
  },
  {
    "name": "Rathenaustraße",
    "place": "München",
    "id": "de:09162:409",
    "divaId": 409,
    "abbreviation": "RTS",
    "tariffZones": "m|1",
    "products": [
      "BUS"
    ],
    "latitude": 48.2007,
    "longitude": 11.57361
  },
  {
    "name": "Bonner Platz",
    "place": "München",
    "id": "de:09162:410",
    "divaId": 410,
    "abbreviation": "BP",
    "tariffZones": "m",
    "products": [
      "UBAHN"
    ],
    "latitude": 48.1667,
    "longitude": 11.57815
  },
  {
    "name": "Siedlung am Hart",
    "place": "München",
    "id": "de:09162:413",
    "divaId": 413,
    "abbreviation": "SAH",
    "tariffZones": "m|1",
    "products": [
      "BUS"
    ],
    "latitude": 48.20121,
    "longitude": 11.57701
  },
  {
    "name": "Sudetendeutsche Straße",
    "place": "München",
    "id": "de:09162:414",
    "divaId": 414,
    "abbreviation": "SUD",
    "tariffZones": "m|1",
    "products": [
      "BUS"
    ],
    "latitude": 48.19615,
    "longitude": 11.57848
  },
  {
    "name": "Euro-Industriepark West",
    "place": "München",
    "id": "de:09162:415",
    "divaId": 415,
    "abbreviation": "EIP",
    "tariffZones": "m|1",
    "products": [
      "BUS"
    ],
    "latitude": 48.19264,
    "longitude": 11.58404
  },
  {
    "name": "Oberhofer Platz",
    "place": "München",
    "id": "de:09162:416",
    "divaId": 416,
    "abbreviation": "OBH",
    "tariffZones": "m|1",
    "products": [
      "BUS"
    ],
    "latitude": 48.18761,
    "longitude": 11.57583
  },
  {
    "name": "Milbertshofener Straße",
    "place": "München",
    "id": "de:09162:417",
    "divaId": 417,
    "abbreviation": "MIS",
    "tariffZones": "m",
    "products": [
      "BUS"
    ],
    "latitude": 48.1844,
    "longitude": 11.57537
  },
  {
    "name": "Mildred-Scheel-Bogen",
    "place": "München",
    "id": "de:09162:418",
    "divaId": 418,
    "abbreviation": "MSB",
    "tariffZones": "m",
    "products": [
      "BUS"
    ],
    "latitude": 48.17534,
    "longitude": 11.58182
  },
  {
    "name": "Rümannstraße",
    "place": "München",
    "id": "de:09162:419",
    "divaId": 419,
    "abbreviation": "RUE",
    "tariffZones": "m",
    "products": [
      "BUS"
    ],
    "latitude": 48.17559,
    "longitude": 11.57307
  },
  {
    "name": "Freimann",
    "place": "München",
    "id": "de:09162:420",
    "divaId": 420,
    "abbreviation": "FR",
    "tariffZones": "m|1",
    "products": [
      "UBAHN"
    ],
    "latitude": 48.19196,
    "longitude": 11.61429
  },
  {
    "name": "Karl-Theodor-Straße",
    "place": "München",
    "id": "de:09162:421",
    "divaId": 421,
    "abbreviation": "KTH",
    "tariffZones": "m",
    "products": [
      "TRAM"
    ],
    "latitude": 48.1669,
    "longitude": 11.57404
  },
  {
    "name": "Clemensstraße",
    "place": "München",
    "id": "de:09162:422",
    "divaId": 422,
    "abbreviation": "CLE",
    "tariffZones": "m",
    "products": [
      "TRAM"
    ],
    "latitude": 48.16348,
    "longitude": 11.57455
  },
  {
    "name": "Griegstraße",
    "place": "München",
    "id": "de:09162:423",
    "divaId": 423,
    "abbreviation": "GRG",
    "tariffZones": "m",
    "products": [
      "BUS"
    ],
    "latitude": 48.18174,
    "longitude": 11.58492
  },
  {
    "name": "Klopstockstraße",
    "place": "München",
    "id": "de:09162:424",
    "divaId": 424,
    "abbreviation": "KLO",
    "tariffZones": "m",
    "products": [
      "BUS"
    ],
    "latitude": 48.17607,
    "longitude": 11.57928
  },
  {
    "name": "Domagkstraße West",
    "place": "München",
    "id": "de:09162:425",
    "divaId": 425,
    "abbreviation": "DOM",
    "tariffZones": "m",
    "products": [
      "BUS"
    ],
    "latitude": 48.18435,
    "longitude": 11.58469
  },
  {
    "name": "Ingolstädter Straße",
    "place": "München",
    "id": "de:09162:426",
    "divaId": 426,
    "abbreviation": "ING",
    "tariffZones": "m|1",
    "products": [
      "BUS"
    ],
    "latitude": 48.18784,
    "longitude": 11.58443
  },
  {
    "name": "Max-Bill-Straße",
    "place": "München",
    "id": "de:09162:427",
    "divaId": 427,
    "abbreviation": "MBL",
    "tariffZones": "m|1",
    "products": [
      "BUS"
    ],
    "latitude": 48.18748,
    "longitude": 11.59705
  },
  {
    "name": "Lilienthalallee Süd",
    "place": "München",
    "id": "de:09162:428",
    "divaId": 428,
    "abbreviation": "LIL",
    "tariffZones": "m|1",
    "products": [
      "BUS"
    ],
    "latitude": 48.18691,
    "longitude": 11.6024
  },
  {
    "name": "Joseph-Dollinger-Bogen",
    "place": "München",
    "id": "de:09162:429",
    "divaId": 429,
    "abbreviation": "JDB",
    "tariffZones": "m|1",
    "products": [
      "BUS"
    ],
    "latitude": 48.18645,
    "longitude": 11.60669
  },
  {
    "name": "Kieferngarten",
    "place": "München",
    "id": "de:09162:430",
    "divaId": 430,
    "abbreviation": "KG",
    "tariffZones": "m|1",
    "products": [
      "UBAHN",
      "BUS"
    ],
    "latitude": 48.20307,
    "longitude": 11.61302
  },
  {
    "name": "Heckscherstraße",
    "place": "München",
    "id": "de:09162:431",
    "divaId": 431,
    "abbreviation": "HEK",
    "tariffZones": "m",
    "products": [
      "BUS"
    ],
    "latitude": 48.17244,
    "longitude": 11.58241
  },
  {
    "name": "Wilhelm-Hertz-Straße",
    "place": "München",
    "id": "de:09162:432",
    "divaId": 432,
    "abbreviation": "WHE",
    "tariffZones": "m",
    "products": [
      "BUS"
    ],
    "latitude": 48.17581,
    "longitude": 11.58545
  },
  {
    "name": "Parzivalplatz",
    "place": "München",
    "id": "de:09162:433",
    "divaId": 433,
    "abbreviation": "PAR",
    "tariffZones": "m",
    "products": [
      "BUS",
      "TRAM"
    ],
    "latitude": 48.17178,
    "longitude": 11.58592
  },
  {
    "name": "Potsdamer Straße",
    "place": "München",
    "id": "de:09162:434",
    "divaId": 434,
    "abbreviation": "POT",
    "tariffZones": "m",
    "products": [
      "BUS",
      "TRAM"
    ],
    "latitude": 48.16731,
    "longitude": 11.58623
  },
  {
    "name": "Kölner Platz",
    "place": "München",
    "id": "de:09162:435",
    "divaId": 435,
    "abbreviation": "KOE",
    "tariffZones": "m",
    "products": [
      "BUS"
    ],
    "latitude": 48.17012,
    "longitude": 11.5774
  },
  {
    "name": "Neuherbergstraße",
    "place": "München",
    "id": "de:09162:436",
    "divaId": 436,
    "abbreviation": "NHS",
    "tariffZones": "m|1",
    "products": [
      "BUS"
    ],
    "latitude": 48.21031,
    "longitude": 11.58704
  },
  {
    "name": "Anton-Will-Straße",
    "place": "München",
    "id": "de:09162:437",
    "divaId": 437,
    "abbreviation": "AWS",
    "tariffZones": "m|1",
    "products": [
      "BUS"
    ],
    "latitude": 48.20569,
    "longitude": 11.58625
  },
  {
    "name": "Heidemannstraße",
    "place": "München",
    "id": "de:09162:438",
    "divaId": 438,
    "abbreviation": "HEM",
    "tariffZones": "m|1",
    "products": [
      "BUS"
    ],
    "latitude": 48.20109,
    "longitude": 11.5855
  },
  {
    "name": "Gundelkoferstraße",
    "place": "München",
    "id": "de:09162:439",
    "divaId": 439,
    "abbreviation": "GDK",
    "tariffZones": "m|1",
    "products": [
      "BUS"
    ],
    "latitude": 48.19589,
    "longitude": 11.58413
  },
  {
    "name": "Werner-Egk-Bogen",
    "place": "München",
    "id": "de:09162:440",
    "divaId": 440,
    "abbreviation": "WEG",
    "tariffZones": "m|1",
    "products": [
      "BUS"
    ],
    "latitude": 48.20145,
    "longitude": 11.59803
  },
  {
    "name": "Paracelsusstraße",
    "place": "München",
    "id": "de:09162:441",
    "divaId": 441,
    "abbreviation": "PCE",
    "tariffZones": "m|1",
    "products": [
      "BUS"
    ],
    "latitude": 48.20133,
    "longitude": 11.5896
  },
  {
    "name": "Grusonstraße",
    "place": "München",
    "id": "de:09162:442",
    "divaId": 442,
    "abbreviation": "GRN",
    "tariffZones": "m|1",
    "products": [
      "BUS"
    ],
    "latitude": 48.20174,
    "longitude": 11.5933
  },
  {
    "name": "Euro-Industriepark Nord",
    "place": "München",
    "id": "de:09162:443",
    "divaId": 443,
    "abbreviation": "EUN",
    "tariffZones": "m|1",
    "products": [
      "BUS"
    ],
    "latitude": 48.20088,
    "longitude": 11.60275
  },
  {
    "name": "Paul-Hindemith-Allee",
    "place": "München",
    "id": "de:09162:444",
    "divaId": 444,
    "abbreviation": "PHT",
    "tariffZones": "m|1",
    "products": [
      "BUS"
    ],
    "latitude": 48.20055,
    "longitude": 11.60578
  },
  {
    "name": "Bernsteinweg",
    "place": "München",
    "id": "de:09162:445",
    "divaId": 445,
    "abbreviation": "BER",
    "tariffZones": "m|1",
    "products": [
      "BUS"
    ],
    "latitude": 48.20084,
    "longitude": 11.61181
  },
  {
    "name": "Rockefellerstraße",
    "place": "München",
    "id": "de:09162:446",
    "divaId": 446,
    "abbreviation": "ROC",
    "tariffZones": "m|1",
    "products": [
      "BUS"
    ],
    "latitude": 48.21068,
    "longitude": 11.57528
  },
  {
    "name": "Rose-Pichler-Weg",
    "place": "München",
    "id": "de:09162:447",
    "divaId": 447,
    "abbreviation": "RPW",
    "tariffZones": "m|1",
    "products": [
      "BUS"
    ],
    "latitude": 48.21085,
    "longitude": 11.58211
  },
  {
    "name": "Gertrud-Grunow-Straße",
    "place": "München",
    "id": "de:09162:448",
    "divaId": 448,
    "abbreviation": "GEG",
    "tariffZones": "m",
    "products": [
      "BUS"
    ],
    "latitude": 48.18312,
    "longitude": 11.59615
  },
  {
    "name": "Untere Länge",
    "place": "München",
    "id": "de:09162:449",
    "divaId": 449,
    "abbreviation": "UNL",
    "tariffZones": "m|1",
    "products": [
      "BUS"
    ],
    "latitude": 48.20582,
    "longitude": 11.59425
  },
  {
    "name": "Kollwitzstraße",
    "place": "München",
    "id": "de:09162:451",
    "divaId": 451,
    "abbreviation": "KOW",
    "tariffZones": "m|1",
    "products": [
      "BUS"
    ],
    "latitude": 48.19827,
    "longitude": 11.58481
  },
  {
    "name": "Pündterplatz",
    "place": "München",
    "id": "de:09162:452",
    "divaId": 452,
    "abbreviation": "PUN",
    "tariffZones": "m",
    "products": [
      "BUS"
    ],
    "latitude": 48.1626,
    "longitude": 11.57687
  },
  {
    "name": "Keilberthstraße",
    "place": "München",
    "id": "de:09162:453",
    "divaId": 453,
    "abbreviation": "KEI",
    "tariffZones": "m|1",
    "products": [
      "BUS"
    ],
    "latitude": 48.2053,
    "longitude": 11.59958
  },
  {
    "name": "Gustav-Mahler-Straße",
    "place": "München",
    "id": "de:09162:454",
    "divaId": 454,
    "abbreviation": "GMS",
    "tariffZones": "m|1",
    "products": [
      "BUS"
    ],
    "latitude": 48.20219,
    "longitude": 11.60309
  },
  {
    "name": "Bismarckstraße",
    "place": "München",
    "id": "de:09162:455",
    "divaId": 455,
    "abbreviation": "BIS",
    "tariffZones": "m",
    "products": [
      "BUS"
    ],
    "latitude": 48.16244,
    "longitude": 11.58219
  },
  {
    "name": "Zaunweg",
    "place": "München",
    "id": "de:09162:457",
    "divaId": 457,
    "abbreviation": "ZAW",
    "tariffZones": "m",
    "products": [
      "BUS"
    ],
    "latitude": 48.18073,
    "longitude": 11.60138
  },
  {
    "name": "Freiligrathstraße",
    "place": "München",
    "id": "de:09162:458",
    "divaId": 458,
    "abbreviation": "FRE",
    "tariffZones": "m",
    "products": [
      "BUS"
    ],
    "latitude": 48.17817,
    "longitude": 11.58525
  },
  {
    "name": "Schwabinger Tor",
    "place": "München",
    "id": "de:09162:459",
    "divaId": 459,
    "abbreviation": "SBT",
    "tariffZones": "m",
    "products": [
      "TRAM"
    ],
    "latitude": 48.17272,
    "longitude": 11.58643
  },
  {
    "name": "Garching-Forschungszentrum",
    "place": "Garching (b München)",
    "id": "de:09184:460",
    "divaId": 460,
    "abbreviation": "GF",
    "tariffZones": "2",
    "products": [
      "UBAHN",
      "BUS"
    ],
    "latitude": 48.26486,
    "longitude": 11.67123
  },
  {
    "name": "Alois-Wolfmüller-Straße",
    "place": "München",
    "id": "de:09162:463",
    "divaId": 463,
    "abbreviation": "ALO",
    "tariffZones": "m|1",
    "products": [
      "BUS"
    ],
    "latitude": 48.19342,
    "longitude": 11.608
  },
  {
    "name": "Edmund-Rumpler-Straße",
    "place": "München",
    "id": "de:09162:464",
    "divaId": 464,
    "abbreviation": "EDM",
    "tariffZones": "m|1",
    "products": [
      "BUS"
    ],
    "latitude": 48.1951,
    "longitude": 11.60889
  },
  {
    "name": "Lindberghstraße",
    "place": "München",
    "id": "de:09162:465",
    "divaId": 465,
    "abbreviation": "LIB",
    "tariffZones": "m|1",
    "products": [
      "BUS"
    ],
    "latitude": 48.19172,
    "longitude": 11.60586
  },
  {
    "name": "Freimanner Hölzl",
    "place": "München",
    "id": "de:09162:466",
    "divaId": 466,
    "abbreviation": "FHO",
    "tariffZones": "m|1",
    "products": [
      "BUS"
    ],
    "latitude": 48.19199,
    "longitude": 11.60128
  },
  {
    "name": "Fröttmaning",
    "place": "München",
    "id": "de:09162:470",
    "divaId": 470,
    "abbreviation": "FT",
    "tariffZones": "m|1",
    "products": [
      "UBAHN"
    ],
    "latitude": 48.21181,
    "longitude": 11.61667
  },
  {
    "name": "Garching-Hochbrück",
    "place": "Garching (b München)",
    "id": "de:09184:480",
    "divaId": 480,
    "abbreviation": "GK",
    "tariffZones": "1|2",
    "products": [
      "UBAHN",
      "BUS"
    ],
    "latitude": 48.24723,
    "longitude": 11.63083
  },
  {
    "name": "Garching",
    "place": "Garching (b München)",
    "id": "de:09184:490",
    "divaId": 490,
    "abbreviation": "GR",
    "tariffZones": "1|2",
    "products": [
      "UBAHN",
      "BUS"
    ],
    "latitude": 48.24942,
    "longitude": 11.65251
  },
  {
    "name": "Münchner Freiheit",
    "place": "München",
    "id": "de:09162:500",
    "divaId": 500,
    "abbreviation": "MU",
    "tariffZones": "m",
    "products": [
      "UBAHN",
      "BUS",
      "TRAM"
    ],
    "latitude": 48.16196,
    "longitude": 11.5865
  },
  {
    "name": "Am Münchner Tor",
    "place": "München",
    "id": "de:09162:501",
    "divaId": 501,
    "abbreviation": "AMT",
    "tariffZones": "m",
    "products": [
      "TRAM"
    ],
    "latitude": 48.17614,
    "longitude": 11.58831
  },
  {
    "name": "Domagkstraße",
    "place": "München",
    "id": "de:09162:502",
    "divaId": 502,
    "abbreviation": "DOK",
    "tariffZones": "m",
    "products": [
      "BUS",
      "TRAM"
    ],
    "latitude": 48.1838,
    "longitude": 11.59028
  },
  {
    "name": "Schwabing Nord",
    "place": "München",
    "id": "de:09162:503",
    "divaId": 503,
    "abbreviation": "SWN",
    "tariffZones": "m|1",
    "products": [
      "BUS",
      "TRAM"
    ],
    "latitude": 48.18669,
    "longitude": 11.5912
  },
  {
    "name": "Dietlindenstraße",
    "place": "München",
    "id": "de:09162:510",
    "divaId": 510,
    "abbreviation": "DL",
    "tariffZones": "m",
    "products": [
      "UBAHN",
      "BUS"
    ],
    "latitude": 48.16715,
    "longitude": 11.59089
  },
  {
    "name": "Osterwaldstraße",
    "place": "München",
    "id": "de:09162:511",
    "divaId": 511,
    "abbreviation": "OSW",
    "tariffZones": "m",
    "products": [
      "BUS"
    ],
    "latitude": 48.16341,
    "longitude": 11.59615
  },
  {
    "name": "Herzogpark",
    "place": "München",
    "id": "de:09162:512",
    "divaId": 512,
    "abbreviation": "HPA",
    "tariffZones": "m",
    "products": [
      "BUS"
    ],
    "latitude": 48.15604,
    "longitude": 11.60723
  },
  {
    "name": "Barlachstraße",
    "place": "München",
    "id": "de:09162:513",
    "divaId": 513,
    "abbreviation": "BAR",
    "tariffZones": "m",
    "products": [
      "BUS"
    ],
    "latitude": 48.17752,
    "longitude": 11.57574
  },
  {
    "name": "Amsterdamer Straße",
    "place": "München",
    "id": "de:09162:518",
    "divaId": 518,
    "abbreviation": "ADS",
    "tariffZones": "m",
    "products": [
      "BUS"
    ],
    "latitude": 48.1695,
    "longitude": 11.59901
  },
  {
    "name": "Nordfriedhof",
    "place": "München",
    "id": "de:09162:520",
    "divaId": 520,
    "abbreviation": "NF",
    "tariffZones": "m",
    "products": [
      "UBAHN",
      "BUS"
    ],
    "latitude": 48.1731,
    "longitude": 11.59691
  },
  {
    "name": "Alte Heide",
    "place": "München",
    "id": "de:09162:530",
    "divaId": 530,
    "abbreviation": "AH",
    "tariffZones": "m",
    "products": [
      "UBAHN",
      "BUS"
    ],
    "latitude": 48.17894,
    "longitude": 11.60296
  },
  {
    "name": "Studentenstadt",
    "place": "München",
    "id": "de:09162:540",
    "divaId": 540,
    "abbreviation": "ST",
    "tariffZones": "m",
    "products": [
      "UBAHN",
      "BUS"
    ],
    "latitude": 48.18367,
    "longitude": 11.6079
  },
  {
    "name": "Situlistraße",
    "place": "München",
    "id": "de:09162:541",
    "divaId": 541,
    "abbreviation": "SIT",
    "tariffZones": "m|1",
    "products": [
      "BUS"
    ],
    "latitude": 48.19014,
    "longitude": 11.61559
  },
  {
    "name": "Floriansmühlstraße",
    "place": "München",
    "id": "de:09162:542",
    "divaId": 542,
    "abbreviation": "FLM",
    "tariffZones": "m|1",
    "products": [
      "BUS"
    ],
    "latitude": 48.19161,
    "longitude": 11.62099
  },
  {
    "name": "Emmerigweg",
    "place": "München",
    "id": "de:09162:543",
    "divaId": 543,
    "abbreviation": "EMW",
    "tariffZones": "m|1",
    "products": [
      "BUS"
    ],
    "latitude": 48.19537,
    "longitude": 11.62398
  },
  {
    "name": "Josef-Wirth-Weg",
    "place": "München",
    "id": "de:09162:544",
    "divaId": 544,
    "abbreviation": "JWW",
    "tariffZones": "m|1",
    "products": [
      "BUS"
    ],
    "latitude": 48.19908,
    "longitude": 11.62639
  },
  {
    "name": "Großlappen",
    "place": "München",
    "id": "de:09162:545",
    "divaId": 545,
    "abbreviation": "GLP",
    "tariffZones": "m|1",
    "products": [
      "BUS"
    ],
    "latitude": 48.20428,
    "longitude": 11.62952
  },
  {
    "name": "Wallnerstraße",
    "place": "München",
    "id": "de:09162:546",
    "divaId": 546,
    "abbreviation": "WLN",
    "tariffZones": "m|1",
    "products": [
      "BUS"
    ],
    "latitude": 48.21036,
    "longitude": 11.6333
  },
  {
    "name": "Fröttmaning Auensiedlung",
    "place": "München",
    "id": "de:09162:547",
    "divaId": 547,
    "abbreviation": "FTA",
    "tariffZones": "m|1",
    "products": [
      "BUS"
    ],
    "latitude": 48.21478,
    "longitude": 11.63564
  },
  {
    "name": "Bayerischer Rundfunk",
    "place": "München",
    "id": "de:09162:548",
    "divaId": 548,
    "abbreviation": "BYR",
    "tariffZones": "m|1",
    "products": [
      "BUS"
    ],
    "latitude": 48.19011,
    "longitude": 11.62744
  },
  {
    "name": "Lützelsteiner Straße",
    "place": "München",
    "id": "de:09162:549",
    "divaId": 549,
    "abbreviation": "LZS",
    "tariffZones": "m|1",
    "products": [
      "BUS"
    ],
    "latitude": 48.19913,
    "longitude": 11.61456
  },
  {
    "name": "Kufsteiner Platz",
    "place": "München",
    "id": "de:09162:550",
    "divaId": 550,
    "abbreviation": "KUF",
    "tariffZones": "m",
    "products": [
      "BUS"
    ],
    "latitude": 48.15017,
    "longitude": 11.60226
  },
  {
    "name": "Redwitzstraße",
    "place": "München",
    "id": "de:09162:551",
    "divaId": 551,
    "abbreviation": "RED",
    "tariffZones": "m",
    "products": [
      "BUS"
    ],
    "latitude": 48.15548,
    "longitude": 11.6086
  },
  {
    "name": "Gustav-Freytag-Straße",
    "place": "München",
    "id": "de:09162:552",
    "divaId": 552,
    "abbreviation": "GUF",
    "tariffZones": "m",
    "products": [
      "BUS"
    ],
    "latitude": 48.15886,
    "longitude": 11.61188
  },
  {
    "name": "Gellertstraße",
    "place": "München",
    "id": "de:09162:553",
    "divaId": 553,
    "abbreviation": "GEL",
    "tariffZones": "m",
    "products": [
      "BUS"
    ],
    "latitude": 48.16257,
    "longitude": 11.61519
  },
  {
    "name": "Rümelinstraße",
    "place": "München",
    "id": "de:09162:554",
    "divaId": 554,
    "abbreviation": "RUM",
    "tariffZones": "m",
    "products": [
      "BUS"
    ],
    "latitude": 48.16594,
    "longitude": 11.61786
  },
  {
    "name": "Poschingerstraße",
    "place": "München",
    "id": "de:09162:555",
    "divaId": 555,
    "abbreviation": "POS",
    "tariffZones": "m",
    "products": [
      "BUS"
    ],
    "latitude": 48.15261,
    "longitude": 11.60587
  },
  {
    "name": "Regina-Ullmann-Straße",
    "place": "München",
    "id": "de:09162:556",
    "divaId": 556,
    "abbreviation": "RUS",
    "tariffZones": "m",
    "products": [
      "BUS",
      "TRAM"
    ],
    "latitude": 48.16989,
    "longitude": 11.63511
  },
  {
    "name": "Bichlhofweg",
    "place": "München",
    "id": "de:09162:557",
    "divaId": 557,
    "abbreviation": "BIC",
    "tariffZones": "m",
    "products": [
      "BUS"
    ],
    "latitude": 48.16901,
    "longitude": 11.64335
  },
  {
    "name": "Böhmerwaldplatz",
    "place": "München",
    "id": "de:09162:560",
    "divaId": 560,
    "abbreviation": "BO",
    "tariffZones": "m",
    "products": [
      "UBAHN",
      "BUS"
    ],
    "latitude": 48.14351,
    "longitude": 11.61552
  },
  {
    "name": "Prinzregentenplatz",
    "place": "München",
    "id": "de:09162:570",
    "divaId": 570,
    "abbreviation": "PZ",
    "tariffZones": "m",
    "products": [
      "UBAHN",
      "BUS"
    ],
    "latitude": 48.13921,
    "longitude": 11.60697
  },
  {
    "name": "Max-Weber-Platz",
    "place": "München",
    "id": "de:09162:580",
    "divaId": 580,
    "abbreviation": "MW",
    "tariffZones": "m",
    "products": [
      "UBAHN",
      "BUS",
      "TRAM"
    ],
    "latitude": 48.13569,
    "longitude": 11.59836
  },
  {
    "name": "Max-Weber-Platz (Johannispl.)",
    "place": "München",
    "id": "de:09162:581",
    "divaId": 581,
    "abbreviation": "MWJ",
    "tariffZones": "m",
    "products": [
      "TRAM"
    ],
    "latitude": 48.13445,
    "longitude": 11.59812
  },
  {
    "name": "Lehel",
    "place": "München",
    "id": "de:09162:590",
    "divaId": 590,
    "abbreviation": "LH",
    "tariffZones": "m",
    "products": [
      "UBAHN",
      "TRAM"
    ],
    "latitude": 48.13969,
    "longitude": 11.58784
  },
  {
    "name": "Grimmeisenstraße",
    "place": "München",
    "id": "de:09162:599",
    "divaId": 599,
    "abbreviation": "GMM",
    "tariffZones": "m",
    "products": [
      "BUS"
    ],
    "latitude": 48.16521,
    "longitude": 11.6447
  },
  {
    "name": "St. Emmeram",
    "place": "München",
    "id": "de:09162:600",
    "divaId": 600,
    "abbreviation": "SEM",
    "tariffZones": "m",
    "products": [
      "BUS",
      "TRAM"
    ],
    "latitude": 48.17623,
    "longitude": 11.63084
  },
  {
    "name": "Fritz-Meyer-Weg",
    "place": "München",
    "id": "de:09162:601",
    "divaId": 601,
    "abbreviation": "FMW",
    "tariffZones": "m",
    "products": [
      "BUS",
      "TRAM"
    ],
    "latitude": 48.17239,
    "longitude": 11.63663
  },
  {
    "name": "Johanneskirchner Straße",
    "place": "München",
    "id": "de:09162:602",
    "divaId": 602,
    "abbreviation": "JOK",
    "tariffZones": "m",
    "products": [
      "BUS"
    ],
    "latitude": 48.16784,
    "longitude": 11.64359
  },
  {
    "name": "Stegmühlstraße",
    "place": "München",
    "id": "de:09162:603",
    "divaId": 603,
    "abbreviation": "STM",
    "tariffZones": "m",
    "products": [
      "BUS"
    ],
    "latitude": 48.16247,
    "longitude": 11.64512
  },
  {
    "name": "Freischützstraße",
    "place": "München",
    "id": "de:09162:604",
    "divaId": 604,
    "abbreviation": "FRS",
    "tariffZones": "m",
    "products": [
      "BUS"
    ],
    "latitude": 48.15869,
    "longitude": 11.64215
  },
  {
    "name": "Englschalkinger Straße",
    "place": "München",
    "id": "de:09162:605",
    "divaId": 605,
    "abbreviation": "ESC",
    "tariffZones": "m",
    "products": [
      "BUS"
    ],
    "latitude": 48.15675,
    "longitude": 11.64185
  },
  {
    "name": "Memeler Straße",
    "place": "München",
    "id": "de:09162:606",
    "divaId": 606,
    "abbreviation": "MML",
    "tariffZones": "m",
    "products": [
      "BUS"
    ],
    "latitude": 48.1533,
    "longitude": 11.64129
  },
  {
    "name": "Zoppoter Straße",
    "place": "München",
    "id": "de:09162:607",
    "divaId": 607,
    "abbreviation": "ZOP",
    "tariffZones": "m",
    "products": [
      "BUS"
    ],
    "latitude": 48.15059,
    "longitude": 11.6407
  },
  {
    "name": "Posener Platz",
    "place": "München",
    "id": "de:09162:608",
    "divaId": 608,
    "abbreviation": "PSP",
    "tariffZones": "m",
    "products": [
      "BUS"
    ],
    "latitude": 48.14818,
    "longitude": 11.64051
  },
  {
    "name": "Warthestraße",
    "place": "München",
    "id": "de:09162:609",
    "divaId": 609,
    "abbreviation": "WAT",
    "tariffZones": "m",
    "products": [
      "BUS"
    ],
    "latitude": 48.14627,
    "longitude": 11.63726
  },
  {
    "name": "Vollmannstraße",
    "place": "München",
    "id": "de:09162:610",
    "divaId": 610,
    "abbreviation": "VOL",
    "tariffZones": "m",
    "products": [
      "BUS"
    ],
    "latitude": 48.14747,
    "longitude": 11.62834
  },
  {
    "name": "Moselstraße",
    "place": "München",
    "id": "de:09162:611",
    "divaId": 611,
    "abbreviation": "MOS",
    "tariffZones": "m",
    "products": [
      "BUS"
    ],
    "latitude": 48.14183,
    "longitude": 11.62725
  },
  {
    "name": "Vogelweideplatz",
    "place": "München",
    "id": "de:09162:612",
    "divaId": 612,
    "abbreviation": "VWP",
    "tariffZones": "m",
    "products": [
      "BUS",
      "TRAM"
    ],
    "latitude": 48.13735,
    "longitude": 11.61968
  },
  {
    "name": "Schwarzwaldstraße",
    "place": "München",
    "id": "de:09162:613",
    "divaId": 613,
    "abbreviation": "SCW",
    "tariffZones": "m",
    "products": [
      "BUS"
    ],
    "latitude": 48.13909,
    "longitude": 11.62865
  },
  {
    "name": "Odinpark",
    "place": "München",
    "id": "de:09162:615",
    "divaId": 615,
    "abbreviation": "ODP",
    "tariffZones": "m",
    "products": [
      "BUS"
    ],
    "latitude": 48.15803,
    "longitude": 11.61939
  },
  {
    "name": "Daphnestraße",
    "place": "München",
    "id": "de:09162:616",
    "divaId": 616,
    "abbreviation": "DAP",
    "tariffZones": "m",
    "products": [
      "BUS"
    ],
    "latitude": 48.14806,
    "longitude": 11.62542
  },
  {
    "name": "Priel",
    "place": "München",
    "id": "de:09162:617",
    "divaId": 617,
    "abbreviation": "PRI",
    "tariffZones": "m",
    "products": [
      "BUS"
    ],
    "latitude": 48.16102,
    "longitude": 11.62188
  },
  {
    "name": "Effnerstraße",
    "place": "München",
    "id": "de:09162:618",
    "divaId": 618,
    "abbreviation": "EFF",
    "tariffZones": "m",
    "products": [
      "BUS"
    ],
    "latitude": 48.16321,
    "longitude": 11.62401
  },